[{"name": "Russellville City Schools", "address": "1945 Waterloo Rd", "state": "AL", "csm": "Deanna Berget", "ae": "Paulina Famiano", "segment": "SMB", "region": "Southeast", "students": "2608", "arr": "22446.20", "arr_12mo_ago": "1560.00", "gdr": "1438.86", "ndr": "1438.86", "lapsed_renewal": "0.00", "last_activity": "1/28/2026", "lat": 34.5076, "lng": -87.7286}, {"name": "Liberty Union High School District", "address": "20 Oak St.", "state": "CA", "csm": "Casey Prohaska", "ae": "Brad Halsey", "segment": "Mid-Market", "region": "West", "students": "8241", "arr": "139367.50", "arr_12mo_ago": "34500.00", "gdr": "100.00", "ndr": "403.96", "lapsed_renewal": "0.00", "last_activity": "11/26/2026", "lat": 37.9849, "lng": -121.768}, {"name": "Acalanes Union High School District", "address": "1212 Pleasant Hill Rd.", "state": "CA", "csm": "Casey Prohaska", "ae": "Brad Halsey", "segment": "Mid-Market", "region": "West", "students": "5415", "arr": "24000.00", "arr_12mo_ago": "6200.00", "gdr": "100.00", "ndr": "387.10", "lapsed_renewal": "0.00", "last_activity": "2/5/2026", "lat": 37.9483, "lng": -122.0607}, {"name": "Alpha Schools / 2HR Learning, Inc", "address": "2028 E Ben White Blvd", "state": "TX", "csm": "Casey Prohaska", "ae": "Paulina Famiano", "segment": "Small", "region": "South-Central", "students": "152", "arr": "21000.00", "arr_12mo_ago": "6500.00", "gdr": "323.08", "ndr": "323.08", "lapsed_renewal": "0.00", "last_activity": "1/19/2027", "lat": 30.2292, "lng": -97.761}, {"name": "John Jay School for Law", "address": "237 7th Avenue", "state": "NY", "csm": "James Kennedy", "ae": "Ben Foley", "segment": "Enterprise", "region": "Northeast", "students": "26808", "arr": "13650.00", "arr_12mo_ago": "4547.00", "gdr": "100.00", "ndr": "300.20", "lapsed_renewal": "0.00", "last_activity": "1/7/2026", "lat": 40.7372, "lng": -73.9915}, {"name": "Sunset Park High School", "address": "153 35th Street", "state": "NY", "csm": "James Kennedy", "ae": "Ben Foley", "segment": "Enterprise", "region": "Northeast", "students": "26808", "arr": "13650.00", "arr_12mo_ago": "4820.00", "gdr": "100.00", "ndr": "283.20", "lapsed_renewal": "0.00", "last_activity": "6/25/2026", "lat": 40.658, "lng": -74.0037}, {"name": "Granville County Public Schools", "address": "101 Delacroix St, Oxford, NC 27565", "state": "NC", "csm": "Deanna Berget", "ae": "Samantha Santucci", "segment": "Mid-Market", "region": "Southeast", "students": "6553", "arr": "65000.00", "arr_12mo_ago": "25750.00", "gdr": "100.00", "ndr": "252.43", "lapsed_renewal": "0.00", "last_activity": "7/2/2026", "lat": 36.3107, "lng": -78.591}, {"name": "Aviation Career & Technical Education High School", "address": "45-30 36th Street", "state": "NY", "csm": "James Kennedy", "ae": "Ben Foley", "segment": "Enterprise", "region": "Northeast", "students": "50843", "arr": "15150.00", "arr_12mo_ago": "6950.00", "gdr": "100.00", "ndr": "217.99", "lapsed_renewal": "0.00", "last_activity": "1/20/2027", "lat": 40.7518, "lng": -73.9235}, {"name": "Colorado Springs School District 11", "address": "1115 NORTH EL PASO STREET", "state": "CO", "csm": "Casey Prohaska", "ae": "Aric Walden", "segment": "Enterprise", "region": "West", "students": "22740", "arr": "18129.00", "arr_12mo_ago": "8875.00", "gdr": "100.00", "ndr": "204.27", "lapsed_renewal": "0.00", "last_activity": "12/21/2026", "lat": 38.8339, "lng": -104.8214}, {"name": "Thomas A. Edison Career and Technical High School", "address": "165-65 84th Avenue", "state": "NY", "csm": "James Kennedy", "ae": "Ben Foley", "segment": "Enterprise", "region": "Northeast", "students": "38052", "arr": "19400.00", "arr_12mo_ago": "9515.00", "gdr": "100.00", "ndr": "203.89", "lapsed_renewal": "0.00", "last_activity": "7/1/2026", "lat": 40.6792, "lng": -73.8339}, {"name": "Fontana Unified School District", "address": "9680 Citrus Ave, Fontana, CA 92335", "state": "CA", "csm": "Casey Prohaska", "ae": "Sean Johnson", "segment": "Enterprise", "region": "West", "students": "33205", "arr": "193700.00", "arr_12mo_ago": "96000.00", "gdr": "100.00", "ndr": "201.77", "lapsed_renewal": "0.00", "last_activity": "1/28/2026", "lat": 34.0897, "lng": -117.4494, "also_strategic": true, "strategic_name": "Fontana Unified"}, {"name": "Spring Creek Community School", "address": "1065 Elton Street", "state": "NY", "csm": "James Kennedy", "ae": "Ben Foley", "segment": "Mid-Market", "region": "Northeast", "students": "19963", "arr": "10850.00", "arr_12mo_ago": "5720.00", "gdr": "100.00", "ndr": "189.69", "lapsed_renewal": "0.00", "last_activity": "1/13/2027", "lat": 40.6537, "lng": -73.8813}, {"name": "Farmington Municipal Schools", "address": "3401 E 30TH ST", "state": "NM", "csm": "Casey Prohaska", "ae": "Sydney Smith", "segment": "Mid-Market", "region": "South-Central", "students": "11120", "arr": "323460.00", "arr_12mo_ago": "171000.00", "gdr": "100.00", "ndr": "189.16", "lapsed_renewal": "0.00", "last_activity": "1/1/2027", "lat": 36.7281, "lng": -108.2187}, {"name": "Hawkins County Schools", "address": "200 N Depot ST", "state": "TN", "csm": "Deanna Berget", "ae": "Samantha Santucci", "segment": "Mid-Market", "region": "Southeast", "students": "6223", "arr": "104500.00", "arr_12mo_ago": "58550.00", "gdr": "92.31", "ndr": "178.48", "lapsed_renewal": "0.00", "last_activity": "7/2/2026", "lat": 36.4776, "lng": -82.9671}, {"name": "Brooklyn High School for Law and Technology", "address": "1396 Broadway", "state": "NY", "csm": "James Kennedy", "ae": "Ally McCready", "segment": "Mid-Market", "region": "Northeast", "students": "5827", "arr": "10570.00", "arr_12mo_ago": "5930.00", "gdr": "100.00", "ndr": "178.25", "lapsed_renewal": "0.00", "last_activity": "6/25/2026", "lat": 40.691, "lng": -73.9534}, {"name": "Clara Barton High School", "address": "901 Classon Avenue", "state": "NY", "csm": "James Kennedy", "ae": "Ben Foley", "segment": "Mid-Market", "region": "Northeast", "students": "", "arr": "15810.00", "arr_12mo_ago": "8900.00", "gdr": "100.00", "ndr": "177.64", "lapsed_renewal": "0.00", "last_activity": "1/6/2027", "lat": 40.6827, "lng": -73.9606}, {"name": "Charleston County School District", "address": "75 Calhoun Street", "state": "SC", "csm": "Deanna Berget", "ae": "Andy Graham", "segment": "Enterprise", "region": "Southeast", "students": "50400", "arr": "6200.00", "arr_12mo_ago": "3500.00", "gdr": "100.00", "ndr": "177.14", "lapsed_renewal": "0.00", "last_activity": "7/7/2026", "lat": 32.7765, "lng": -79.9311, "also_strategic": true, "strategic_name": "Charleston County School District"}, {"name": "Cass City Public Schools", "address": "4868 SEEGER ST", "state": "MI", "csm": "Casey Prohaska", "ae": "Marixza Acuna", "segment": "Small", "region": "Midwest", "students": "918", "arr": "2900.00", "arr_12mo_ago": "1700.00", "gdr": "100.00", "ndr": "170.59", "lapsed_renewal": "0.00", "last_activity": "8/15/2025", "lat": 43.6011, "lng": -83.1747}, {"name": "Unity Center for Urban Technologies", "address": "111 East 33rd Street", "state": "NY", "csm": "James Kennedy", "ae": "Ben Foley", "segment": "Enterprise", "region": "Northeast", "students": "55421", "arr": "8240.00", "arr_12mo_ago": "4860.00", "gdr": "100.00", "ndr": "169.55", "lapsed_renewal": "0.00", "last_activity": "6/25/2026", "lat": 40.7451, "lng": -73.9812}, {"name": "Triton Regional School District", "address": "112 Elm Street", "state": "MA", "csm": "Deanna Berget", "ae": "Marixza Acuna", "segment": "SMB", "region": "Northeast", "students": "2155", "arr": "6816.00", "arr_12mo_ago": "4090.00", "gdr": "100.00", "ndr": "166.65", "lapsed_renewal": "0.00", "last_activity": "1/28/2026", "lat": 42.8351, "lng": -70.9371}, {"name": "Bushwick Leaders High School for Academic Excellence", "address": "797 Bushwick Ave.", "state": "NY", "csm": "James Kennedy", "ae": "Ally McCready", "segment": "Mid-Market", "region": "Northeast", "students": "9633", "arr": "9750.00", "arr_12mo_ago": "6000.00", "gdr": "100.00", "ndr": "162.50", "lapsed_renewal": "0.00", "last_activity": "7/1/2026", "lat": 40.6987, "lng": -73.9277}, {"name": "Belcourt 7", "address": "1330 Braves Blvd, Belcourt, ND 58316", "state": "ND", "csm": "Casey Prohaska", "ae": "Caroline Uhlarik", "segment": "SMB", "region": "Midwest", "students": "1561", "arr": "24950.00", "arr_12mo_ago": "16500.00", "gdr": "100.00", "ndr": "151.21", "lapsed_renewal": "0.00", "last_activity": "8/6/2026", "lat": 48.8292, "lng": -99.7435}, {"name": "Manassas Park City Public Schools", "address": "100 Park Central Plaza Suite 300", "state": "VA", "csm": "Deanna Berget", "ae": "Caroline Uhlarik", "segment": "SMB", "region": "Southeast", "students": "3410", "arr": "37090.00", "arr_12mo_ago": "25950.00", "gdr": "103.85", "ndr": "142.93", "lapsed_renewal": "0.00", "last_activity": "9/14/2026", "lat": 38.7712, "lng": -77.443}, {"name": "Midwood High School", "address": "2839 Bedford Avenue", "state": "NY", "csm": "James Kennedy", "ae": "Ben Foley", "segment": "Enterprise", "region": "Northeast", "students": "", "arr": "15150.00", "arr_12mo_ago": "10750.00", "gdr": "100.00", "ndr": "140.93", "lapsed_renewal": "0.00", "last_activity": "8/11/2026", "lat": 40.6215, "lng": -73.9478}, {"name": "Cumberland County Public Schools", "address": "1541 Anderson Hwy, Cumberland, VA 23040", "state": "VA", "csm": "Deanna Berget", "ae": "Caroline Uhlarik", "segment": "SMB", "region": "Southeast", "students": "1233", "arr": "10250.00", "arr_12mo_ago": "7500.00", "gdr": "100.00", "ndr": "136.67", "lapsed_renewal": "0.00", "last_activity": "8/7/2026", "lat": 37.4976, "lng": -78.2491}, {"name": "Williamsburg Preparatory School", "address": "257 North 6th Street", "state": "NY", "csm": "James Kennedy", "ae": "Ben Foley", "segment": "Mid-Market", "region": "Northeast", "students": "15196", "arr": "8450.00", "arr_12mo_ago": "6213.00", "gdr": "100.00", "ndr": "136.01", "lapsed_renewal": "0.00", "last_activity": "1/20/2027", "lat": 40.7166, "lng": -73.9614}, {"name": "Transit Tech CTE High School", "address": "1 Wells Street", "state": "NY", "csm": "James Kennedy", "ae": "Ben Foley", "segment": "Mid-Market", "region": "Northeast", "students": "19963", "arr": "9510.00", "arr_12mo_ago": "7100.00", "gdr": "100.00", "ndr": "133.94", "lapsed_renewal": "0.00", "last_activity": "1/14/2027", "lat": 40.658, "lng": -73.957}, {"name": "Brooklyn Lab School", "address": "999 Jamaica Avenue", "state": "NY", "csm": "James Kennedy", "ae": "Ben Foley", "segment": "Mid-Market", "region": "Northeast", "students": "19963", "arr": "13650.00", "arr_12mo_ago": "10360.00", "gdr": "100.00", "ndr": "131.76", "lapsed_renewal": "0.00", "last_activity": "9/15/2026", "lat": 40.6866, "lng": -73.9755}, {"name": "Cobble Hill School of American Studies", "address": "347 Baltic Street", "state": "NY", "csm": "James Kennedy", "ae": "Ben Foley", "segment": "Enterprise", "region": "Northeast", "students": "26808", "arr": "9814.00", "arr_12mo_ago": "7670.00", "gdr": "113.98", "ndr": "127.95", "lapsed_renewal": "0.00", "last_activity": "11/4/2026", "lat": 40.6877, "lng": -73.9946}, {"name": "A-Tech High School", "address": "50 Bedford Avenue", "state": "NY", "csm": "James Kennedy", "ae": "Ben Foley", "segment": "Mid-Market", "region": "Northeast", "students": "15196", "arr": "7650.00", "arr_12mo_ago": "6110.00", "gdr": "100.00", "ndr": "125.20", "lapsed_renewal": "0.00", "last_activity": "6/23/2026", "lat": 40.6866, "lng": -73.9284}, {"name": "Limestone County Schools", "address": "300 S Jefferson St", "state": "AL", "csm": "Deanna Berget", "ae": "Samantha Santucci", "segment": "Mid-Market", "region": "Southeast", "students": "15893", "arr": "49555.70", "arr_12mo_ago": "39829.00", "gdr": "100.00", "ndr": "124.42", "lapsed_renewal": "0.00", "last_activity": "1/15/2026", "lat": 34.8023, "lng": -86.9441}, {"name": "Beaumont Unified School District", "address": "350 W Brookside Ave, Beaumont, CA 92223", "state": "CA", "csm": "Casey Prohaska", "ae": "Brad Halsey", "segment": "Mid-Market", "region": "West", "students": "12121", "arr": "134150.00", "arr_12mo_ago": "108500.00", "gdr": "100.00", "ndr": "123.64", "lapsed_renewal": "0.00", "last_activity": "5/5/2026", "lat": 33.9306, "lng": -116.9756}, {"name": "Franklin Delano Roosevelt High School", "address": "5800 20th Avenue", "state": "NY", "csm": "James Kennedy", "ae": "Ben Foley", "segment": "Enterprise", "region": "Northeast", "students": "", "arr": "24990.00", "arr_12mo_ago": "20600.00", "gdr": "100.00", "ndr": "121.31", "lapsed_renewal": "0.00", "last_activity": "1/28/2026", "lat": 40.581, "lng": -73.968}, {"name": "Multicultural High School", "address": "999 Jamaica Avenue", "state": "NY", "csm": "James Kennedy", "ae": "Ben Foley", "segment": "Mid-Market", "region": "Northeast", "students": "19963", "arr": "9750.00", "arr_12mo_ago": "8100.00", "gdr": "100.00", "ndr": "120.37", "lapsed_renewal": "0.00", "last_activity": "6/5/2026", "lat": 40.6866, "lng": -73.9755}, {"name": "Forest Hills High School", "address": "Forest Hills High School", "state": "NY", "csm": "James Kennedy", "ae": "Ben Foley", "segment": "Enterprise", "region": "Northeast", "students": "38052", "arr": "21150.00", "arr_12mo_ago": "17800.00", "gdr": "100.00", "ndr": "118.82", "lapsed_renewal": "0.00", "last_activity": "8/18/2026", "lat": 40.726, "lng": -73.8448}, {"name": "East Williamsburg Scholars Academy", "address": "850 Grand Street", "state": "NY", "csm": "James Kennedy", "ae": "Ben Foley", "segment": "Mid-Market", "region": "Northeast", "students": "15196", "arr": "12844.00", "arr_12mo_ago": "10880.00", "gdr": "100.00", "ndr": "118.05", "lapsed_renewal": "0.00", "last_activity": "9/12/2025", "lat": 40.7102, "lng": -73.9356}, {"name": "Templeton Academy", "address": "", "state": "DC", "csm": "Deanna Berget", "ae": "Marixza Acuna", "segment": "Small", "region": "Northeast", "students": "50", "arr": "2890.00", "arr_12mo_ago": "2500.00", "gdr": "100.00", "ndr": "115.60", "lapsed_renewal": "0.00", "last_activity": "10/8/2025", "lat": 38.9072, "lng": -76.9952}, {"name": "Hanover County Public Schools", "address": "200 Berkley St", "state": "VA", "csm": "Deanna Berget", "ae": "John Tyrrell", "segment": "Mid-Market", "region": "Southeast", "students": "16820", "arr": "45950.00", "arr_12mo_ago": "40018.50", "gdr": "100.00", "ndr": "114.82", "lapsed_renewal": "0.00", "last_activity": "8/19/2026", "lat": 37.754, "lng": -77.4718}, {"name": "Camden's Promise Charter School", "address": "879 Beideman Ave", "state": "NJ", "csm": "Deanna Berget", "ae": "Marixza Acuna", "segment": "SMB", "region": "Northeast", "students": "2440", "arr": "20060.00", "arr_12mo_ago": "17500.00", "gdr": "100.00", "ndr": "114.63", "lapsed_renewal": "0.00", "last_activity": "9/11/2026", "lat": 39.9259, "lng": -75.1107}, {"name": "Cypress Hills Collegiate Preparatory School", "address": "999 Jamaica Avenue", "state": "NY", "csm": "James Kennedy", "ae": "Ben Foley", "segment": "Mid-Market", "region": "Northeast", "students": "19963", "arr": "11950.00", "arr_12mo_ago": "10525.00", "gdr": "100.00", "ndr": "113.54", "lapsed_renewal": "0.00", "last_activity": "7/1/2026", "lat": 40.6795, "lng": -73.8807}, {"name": "EBC High School for Public Service - Bushwick", "address": "1155 DeKalb Avenue", "state": "NY", "csm": "James Kennedy", "ae": "Ally McCready", "segment": "Mid-Market", "region": "Northeast", "students": "9633", "arr": "12960.00", "arr_12mo_ago": "11460.00", "gdr": "100.00", "ndr": "113.09", "lapsed_renewal": "0.00", "last_activity": "7/1/2026", "lat": 40.6987, "lng": -73.9277}, {"name": "Pickens County School District", "address": "159 Stegall Drive", "state": "GA", "csm": "Deanna Berget", "ae": "Paulina Famiano", "segment": "SMB", "region": "Southeast", "students": "4007", "arr": "3867.50", "arr_12mo_ago": "3450.00", "gdr": "35.51", "ndr": "112.10", "lapsed_renewal": "0.00", "last_activity": "4/2/2026", "lat": 34.4634, "lng": -84.4655}, {"name": "James Madison High School", "address": "3787 Bedford Avenue", "state": "NY", "csm": "James Kennedy", "ae": "Ally McCready", "segment": "Enterprise", "region": "Northeast", "students": "", "arr": "25000.00", "arr_12mo_ago": "22550.00", "gdr": "100.00", "ndr": "110.86", "lapsed_renewal": "0.00", "last_activity": "12/29/2026", "lat": 40.609, "lng": -73.9476}, {"name": "School for Classics High School", "address": "370 Fountain Avenue", "state": "NY", "csm": "James Kennedy", "ae": "Ben Foley", "segment": "Mid-Market", "region": "Northeast", "students": "19963", "arr": "11060.00", "arr_12mo_ago": "10090.00", "gdr": "100.00", "ndr": "109.61", "lapsed_renewal": "0.00", "last_activity": "8/11/2026", "lat": 40.6866, "lng": -73.9755}, {"name": "FDNY - Captain Vernon A. Richards High School", "address": "400 Pennsylvania Ave.", "state": "NY", "csm": "James Kennedy", "ae": "Ben Foley", "segment": "Mid-Market", "region": "Northeast", "students": "19963", "arr": "10086.00", "arr_12mo_ago": "9260.00", "gdr": "100.00", "ndr": "108.92", "lapsed_renewal": "0.00", "last_activity": "7/3/2026", "lat": 40.6765, "lng": -73.8944}, {"name": "Dawson County School District", "address": "517 Allen Street", "state": "GA", "csm": "Deanna Berget", "ae": "Paulina Famiano", "segment": "SMB", "region": "Southeast", "students": "4069", "arr": "27100.00", "arr_12mo_ago": "25000.00", "gdr": "100.00", "ndr": "108.40", "lapsed_renewal": "0.00", "last_activity": "1/7/2026", "lat": 34.4283, "lng": -84.1213}, {"name": "Wilson County Schools", "address": "117 NE Tarboro St, Wilson, NC 27893", "state": "NC", "csm": "Deanna Berget", "ae": "Samantha Santucci", "segment": "Mid-Market", "region": "Southeast", "students": "10260", "arr": "77530.00", "arr_12mo_ago": "71900.00", "gdr": "100.00", "ndr": "107.83", "lapsed_renewal": "0.00", "last_activity": "6/8/2026", "lat": 35.7252, "lng": -77.9132}, {"name": "Brooklyn Studio Secondary School", "address": "8310 21st Avenue", "state": "NY", "csm": "James Kennedy", "ae": "Ben Foley", "segment": "Enterprise", "region": "Northeast", "students": "", "arr": "19425.00", "arr_12mo_ago": "18300.00", "gdr": "100.00", "ndr": "106.15", "lapsed_renewal": "0.00", "last_activity": "1/20/2026", "lat": 40.6892, "lng": -73.9714}, {"name": "Kern High School District", "address": "5801 Sundale Ave.", "state": "CA", "csm": "Casey Prohaska", "ae": "Sean Johnson", "segment": "Enterprise", "region": "West", "students": "43116", "arr": "284150.00", "arr_12mo_ago": "269650.00", "gdr": "100.00", "ndr": "105.38", "lapsed_renewal": "0.00", "last_activity": "9/21/2026", "lat": 35.3733, "lng": -119.0187, "also_strategic": true, "strategic_name": "Kern High"}, {"name": "The East New York Arts and Civics High School", "address": "", "state": "", "csm": "James Kennedy", "ae": "Ben Foley", "segment": "Mid-Market", "region": "Northeast", "students": "19963", "arr": "5488.00", "arr_12mo_ago": "5230.00", "gdr": "100.00", "ndr": "104.93", "lapsed_renewal": "0.00", "last_activity": "1/29/2026", "lat": 40.658, "lng": -73.887}, {"name": "Newtown High School", "address": "48-01 90th Street", "state": "NY", "csm": "James Kennedy", "ae": "Ben Foley", "segment": "Enterprise", "region": "Northeast", "students": "50843", "arr": "25000.00", "arr_12mo_ago": "24250.00", "gdr": "100.00", "ndr": "103.09", "lapsed_renewal": "0.00", "last_activity": "2/5/2026", "lat": 40.736, "lng": -73.8692}, {"name": "Monroe Central School Corporation", "address": "1918 N CR 1000 W", "state": "IN", "csm": "Casey Prohaska", "ae": "Sydney Levenfeld", "segment": "SMB", "region": "Midwest", "students": "1112", "arr": "17450.00", "arr_12mo_ago": "17000.00", "gdr": "100.00", "ndr": "102.65", "lapsed_renewal": "0.00", "last_activity": "2/2/2026", "lat": 40.1947, "lng": -85.2672}, {"name": "Boys and Girls High School", "address": "1700 Fulton Street", "state": "NY", "csm": "James Kennedy", "ae": "Ally McCready", "segment": "Mid-Market", "region": "Northeast", "students": "5827", "arr": "9360.00", "arr_12mo_ago": "9150.00", "gdr": "100.00", "ndr": "102.30", "lapsed_renewal": "0.00", "last_activity": "6/26/2026", "lat": 40.6828, "lng": -73.9348}, {"name": "Hillside Public Schools", "address": "195 Virginia Street", "state": "NJ", "csm": "Deanna Berget", "ae": "Marixza Acuna", "segment": "SMB", "region": "Northeast", "students": "3046", "arr": "33000.00", "arr_12mo_ago": "32480.00", "gdr": "100.00", "ndr": "101.60", "lapsed_renewal": "0.00", "last_activity": "7/28/2026", "lat": 40.6959, "lng": -74.2297}, {"name": "Preparatory Academy for Writers", "address": "143-10 Springfield Boulevard", "state": "NY", "csm": "James Kennedy", "ae": "Ben Foley", "segment": "Enterprise", "region": "Northeast", "students": "23648", "arr": "11780.00", "arr_12mo_ago": "11650.00", "gdr": "100.00", "ndr": "101.12", "lapsed_renewal": "0.00", "last_activity": "7/8/2026", "lat": 40.8134, "lng": -73.9119}, {"name": "Allendale Public Schools", "address": "10505 LEARNING LN", "state": "MI", "csm": "Casey Prohaska", "ae": "Samantha Santucci", "segment": "SMB", "region": "Midwest", "students": "2600", "arr": "22750.00", "arr_12mo_ago": "22750.00", "gdr": "100.00", "ndr": "100.00", "lapsed_renewal": "0.00", "last_activity": "1/30/2026", "lat": 42.9826, "lng": -86.1795}, {"name": "Northeast School Corporation", "address": "604 S 550 E, Fountain City, IN 47341", "state": "IN", "csm": "Casey Prohaska", "ae": "Sydney Levenfeld", "segment": "Small", "region": "Midwest", "students": "771", "arr": "11400.00", "arr_12mo_ago": "11400.00", "gdr": "100.00", "ndr": "100.00", "lapsed_renewal": "0.00", "last_activity": "", "lat": 40.2547, "lng": -84.94}, {"name": "Palm Springs Unified School District", "address": "150 District Center Dr.", "state": "CA", "csm": "Casey Prohaska", "ae": "Brad Halsey", "segment": "Enterprise", "region": "West", "students": "20416", "arr": "163333.00", "arr_12mo_ago": "163333.00", "gdr": "100.00", "ndr": "100.00", "lapsed_renewal": "0.00", "last_activity": "1/30/2026", "lat": 33.8303, "lng": -116.5453}, {"name": "Porter Township School Corporation", "address": "248 S 500 W", "state": "IN", "csm": "Casey Prohaska", "ae": "Sydney Levenfeld", "segment": "SMB", "region": "Midwest", "students": "1467", "arr": "3000.00", "arr_12mo_ago": "3000.00", "gdr": "100.00", "ndr": "100.00", "lapsed_renewal": "0.00", "last_activity": "6/14/2024", "lat": 41.312, "lng": -87.0735}, {"name": "Raton Public Schools", "address": "1550 TIGER CIRCLE", "state": "NM", "csm": "Casey Prohaska", "ae": "Christina Ceballos", "segment": "Small", "region": "South-Central", "students": "833", "arr": "3000.00", "arr_12mo_ago": "3000.00", "gdr": "100.00", "ndr": "100.00", "lapsed_renewal": "0.00", "last_activity": "1/22/2027", "lat": 36.8975, "lng": -104.4393}, {"name": "Rolla Public Schools (Rolla 31)", "address": "500A FORUM DR", "state": "MO", "csm": "Casey Prohaska", "ae": "Daniel Way", "segment": "SMB", "region": "Midwest", "students": "4202", "arr": "10600.00", "arr_12mo_ago": "10600.00", "gdr": "100.00", "ndr": "100.00", "lapsed_renewal": "0.00", "last_activity": "12/15/2026", "lat": 37.9514, "lng": -91.7712}, {"name": "San Jacinto Unified School District", "address": "2045 South San Jacinto Ave.", "state": "CA", "csm": "Casey Prohaska", "ae": "Brad Halsey", "segment": "Mid-Market", "region": "West", "students": "10401", "arr": "168291.00", "arr_12mo_ago": "168291.00", "gdr": "100.00", "ndr": "100.00", "lapsed_renewal": "0.00", "last_activity": "5/28/2026", "lat": 33.784, "lng": -116.9587}, {"name": "Shelby County Schools", "address": "410 E College St, Columbiana, AL 35051", "state": "AL", "csm": "Deanna Berget", "ae": "John Tyrrell", "segment": "Enterprise", "region": "Southeast", "students": "20937", "arr": "11700.00", "arr_12mo_ago": "11700.00", "gdr": "100.00", "ndr": "100.00", "lapsed_renewal": "0.00", "last_activity": "1/30/2026", "lat": 33.1792, "lng": -86.6074}, {"name": "Federal Way Public Schools", "address": "33330 8th AVE S", "state": "WA", "csm": "Casey Prohaska", "ae": "Ben Skillman", "segment": "Enterprise", "region": "West", "students": "21818", "arr": "175000.00", "arr_12mo_ago": "175000.00", "gdr": "100.00", "ndr": "100.00", "lapsed_renewal": "0.00", "last_activity": "1/18/2027", "lat": 47.3223, "lng": -122.3126}, {"name": "Frederick County Public Schools", "address": "P O Box 3508", "state": "VA", "csm": "Deanna Berget", "ae": "John Tyrrell", "segment": "Mid-Market", "region": "Southeast", "students": "14172", "arr": "155333.00", "arr_12mo_ago": "155333.00", "gdr": "100.00", "ndr": "100.00", "lapsed_renewal": "0.00", "last_activity": "2/13/2026", "lat": 39.1687, "lng": -78.1633, "also_strategic": true, "strategic_name": "Frederick County Public Schools"}, {"name": "Southern Valley Schools", "address": "43739 HWY 89", "state": "NE", "csm": "Casey Prohaska", "ae": "Jonathan Pacheco", "segment": "Small", "region": "Midwest", "students": "397", "arr": "1750.00", "arr_12mo_ago": "1750.00", "gdr": "100.00", "ndr": "100.00", "lapsed_renewal": "0.00", "last_activity": "12/3/2026", "lat": 40.4233, "lng": -100.4141}, {"name": "Stafford County Public Schools", "address": "31 Stafford Avenue", "state": "VA", "csm": "Deanna Berget", "ae": "John Tyrrell", "segment": "Enterprise", "region": "Southeast", "students": "31547", "arr": "3600.00", "arr_12mo_ago": "3600.00", "gdr": "100.00", "ndr": "100.00", "lapsed_renewal": "0.00", "last_activity": "1/25/2027", "lat": 38.422, "lng": -77.4083}, {"name": "Hays Consolidated Independent School District", "address": "21003 INTERSTATE 35", "state": "TX", "csm": "Casey Prohaska", "ae": "Brad Halsey", "segment": "Enterprise", "region": "South-Central", "students": "23313", "arr": "2000.00", "arr_12mo_ago": "2000.00", "gdr": "100.00", "ndr": "100.00", "lapsed_renewal": "0.00", "last_activity": "12/4/2025", "lat": 29.9988, "lng": -97.8775}, {"name": "Valle Lindo School District (Valle Lindo Elementary School District)", "address": "1431 North Central Ave.", "state": "CA", "csm": "Casey Prohaska", "ae": "Callie Brennan", "segment": "Small", "region": "West", "students": "875", "arr": "8100.00", "arr_12mo_ago": "8100.00", "gdr": "100.00", "ndr": "100.00", "lapsed_renewal": "0.00", "last_activity": "1/15/2027", "lat": 34.07, "lng": -118.04}, {"name": "Leon County Schools", "address": "2757 W PENSACOLA ST", "state": "FL", "csm": "Deanna Berget", "ae": "Andy Graham", "segment": "Enterprise", "region": "Southeast", "students": "31769", "arr": "28850.00", "arr_12mo_ago": "28850.00", "gdr": "100.00", "ndr": "100.00", "lapsed_renewal": "0.00", "last_activity": "7/9/2026", "lat": 30.4383, "lng": -84.2807}, {"name": "Instituto de Ciencias", "address": "", "state": "MX", "csm": "Casey Prohaska", "ae": "Jonathan Pacheco", "segment": "Small", "region": "International", "students": "400", "arr": "29300.00", "arr_12mo_ago": "29300.00", "gdr": "100.00", "ndr": "100.00", "lapsed_renewal": "0.00", "last_activity": "12/12/2025", "lat": 20.6597, "lng": -103.3496}, {"name": "Natrona County School District 1", "address": "970 North Glenn Road", "state": "WY", "csm": "Casey Prohaska", "ae": "Aric Walden", "segment": "Mid-Market", "region": "West", "students": "12799", "arr": "10000.00", "arr_12mo_ago": "10200.00", "gdr": "98.04", "ndr": "98.04", "lapsed_renewal": "0.00", "last_activity": "9/21/2026", "lat": 42.8501, "lng": -106.3252}, {"name": "Fulton County Schools", "address": "6201 Powers Ferry Road", "state": "GA", "csm": "Deanna Berget", "ae": "Andy Graham", "segment": "Enterprise", "region": "Southeast", "students": "88043", "arr": "246884.00", "arr_12mo_ago": "252100.00", "gdr": "97.93", "ndr": "97.93", "lapsed_renewal": "0.00", "last_activity": "2/17/2026", "lat": 33.7621, "lng": -84.3836, "also_strategic": true, "strategic_name": "Fulton County Schools"}, {"name": "Teachers Preparatory High School", "address": "226 Bristol Street", "state": "NY", "csm": "James Kennedy", "ae": "Ally McCready", "segment": "Mid-Market", "region": "Northeast", "students": "8334", "arr": "5150.00", "arr_12mo_ago": "5300.00", "gdr": "97.17", "ndr": "97.17", "lapsed_renewal": "0.00", "last_activity": "1/21/2026", "lat": 40.6716, "lng": -73.9246}, {"name": "De La Salle Collegiate", "address": "14600 Common Rd", "state": "MI", "csm": "Casey Prohaska", "ae": "Marixza Acuna", "segment": "Small", "region": "Midwest", "students": "521", "arr": "11750.00", "arr_12mo_ago": "12180.00", "gdr": "96.47", "ndr": "96.47", "lapsed_renewal": "0.00", "last_activity": "11/10/2025", "lat": 42.5312, "lng": -82.9418}, {"name": "Harding County School District 31-1", "address": "107 8th Ave, Buffalo, SD 57720", "state": "SD", "csm": "Casey Prohaska", "ae": "Caroline Uhlarik", "segment": "Small", "region": "Midwest", "students": "221", "arr": "4800.00", "arr_12mo_ago": "5250.00", "gdr": "91.43", "ndr": "91.43", "lapsed_renewal": "0.00", "last_activity": "10/2/2025", "lat": 45.5841, "lng": -103.546}, {"name": "Celina Independent School District", "address": "205 S COLORADO", "state": "TX", "csm": "Casey Prohaska", "ae": "Christina Ceballos", "segment": "SMB", "region": "South-Central", "students": "4577", "arr": "10876.00", "arr_12mo_ago": "12000.00", "gdr": "90.63", "ndr": "90.63", "lapsed_renewal": "0.00", "last_activity": "1/27/2026", "lat": 33.2948, "lng": -96.7847}, {"name": "Twin Valley School District", "address": "4851 N. Twin Valley Road", "state": "PA", "csm": "Deanna Berget", "ae": "Sydney Levenfeld", "segment": "SMB", "region": "Northeast", "students": "2967", "arr": "34689.00", "arr_12mo_ago": "40810.00", "gdr": "85.00", "ndr": "85.00", "lapsed_renewal": "0.00", "last_activity": "1/30/2026", "lat": 40.1889, "lng": -75.8986}, {"name": "Lincoln County School District #1", "address": "324 Clay St, Kemmerer, WY 83101", "state": "WY", "csm": "Casey Prohaska", "ae": "Christina Ceballos", "segment": "Small", "region": "West", "students": "614", "arr": "8900.00", "arr_12mo_ago": "10660.00", "gdr": "83.49", "ndr": "83.49", "lapsed_renewal": "0.00", "last_activity": "11/18/2025", "lat": 41.7924, "lng": -110.5378}, {"name": "St. Norbert School", "address": "", "state": "IL", "csm": "Casey Prohaska", "ae": "Caroline Uhlarik", "segment": "Small", "region": "Midwest", "students": "175", "arr": "1125.15", "arr_12mo_ago": "1350.00", "gdr": "83.34", "ndr": "83.34", "lapsed_renewal": "0.00", "last_activity": "11/10/2025", "lat": 41.7147, "lng": -87.7916}, {"name": "Progress High School for Professional Careers", "address": "850 Grand Street", "state": "NY", "csm": "James Kennedy", "ae": "Ben Foley", "segment": "Mid-Market", "region": "Northeast", "students": "15196", "arr": "3750.00", "arr_12mo_ago": "5325.00", "gdr": "70.42", "ndr": "70.42", "lapsed_renewal": "0.00", "last_activity": "7/6/2026", "lat": 40.6863, "lng": -73.9746}, {"name": "Pelham City Schools", "address": "3160 Pelham Parkway", "state": "AL", "csm": "Deanna Berget", "ae": "Paulina Famiano", "segment": "SMB", "region": "Southeast", "students": "3448", "arr": "19775.00", "arr_12mo_ago": "31982.00", "gdr": "61.83", "ndr": "61.83", "lapsed_renewal": "0.00", "last_activity": "11/5/2025", "lat": 33.2857, "lng": -86.8091}, {"name": "Bertie County Schools", "address": "715 US Highway 13 North", "state": "NC", "csm": "Deanna Berget", "ae": "Daniel Way", "segment": "SMB", "region": "Southeast", "students": "1781", "arr": "8461.12", "arr_12mo_ago": "13930.00", "gdr": "60.74", "ndr": "60.74", "lapsed_renewal": "0.00", "last_activity": "1/27/2026", "lat": 36.0625, "lng": -76.953}, {"name": "Juab School District", "address": "346 E 600 N", "state": "UT", "csm": "Casey Prohaska", "ae": "Callie Brennan", "segment": "SMB", "region": "West", "students": "2726", "arr": "14500.00", "arr_12mo_ago": "26000.00", "gdr": "55.77", "ndr": "55.77", "lapsed_renewal": "0.00", "last_activity": "4/29/2026", "lat": 39.7127, "lng": -111.7744}, {"name": "Monterey Peninsula Unified School District", "address": "700 Pacific St, Monterey, CA 93940", "state": "CA", "csm": "Casey Prohaska", "ae": "Brad Halsey", "segment": "Mid-Market", "region": "West", "students": "9252", "arr": "30250.00", "arr_12mo_ago": "60500.00", "gdr": "50.00", "ndr": "50.00", "lapsed_renewal": "0.00", "last_activity": "10/31/2025", "lat": 36.5952, "lng": -121.8914}, {"name": "Anderson School District 4", "address": "801 N Hamilton St, Williamston, SC 29697", "state": "SC", "csm": "Deanna Berget", "ae": "Daniel Way", "segment": "SMB", "region": "Southeast", "students": "3103", "arr": "2640.00", "arr_12mo_ago": "5900.00", "gdr": "44.75", "ndr": "44.75", "lapsed_renewal": "0.00", "last_activity": "3/4/2026", "lat": 34.6246, "lng": -82.4756}, {"name": "Orange County Public Schools", "address": "200 Dailey Drive", "state": "VA", "csm": "Deanna Berget", "ae": "John Tyrrell", "segment": "Mid-Market", "region": "Southeast", "students": "5076", "arr": "35280.00", "arr_12mo_ago": "81500.00", "gdr": "43.29", "ndr": "43.29", "lapsed_renewal": "0.00", "last_activity": "2/6/2026", "lat": 38.2459, "lng": -78.1108, "also_strategic": true, "strategic_name": "Orange County Public Schools"}, {"name": "Life Academy High School for Film and Music", "address": "2630 Benson Avenue", "state": "NY", "csm": "James Kennedy", "ae": "Ben Foley", "segment": "Enterprise", "region": "Northeast", "students": "", "arr": "2293.00", "arr_12mo_ago": "6400.00", "gdr": "35.83", "ndr": "35.83", "lapsed_renewal": "0.00", "last_activity": "1/21/2026", "lat": 40.6978, "lng": -73.9335}, {"name": "International School of Trieste", "address": "16 Via di Conconello", "state": "Italy", "csm": "Deanna Berget", "ae": "Daniel Way", "segment": "Small", "region": "International", "students": "360", "arr": "462.00", "arr_12mo_ago": "1740.00", "gdr": "26.55", "ndr": "26.55", "lapsed_renewal": "0.00", "last_activity": "2/2/2026", "lat": 45.6495, "lng": 13.7768}, {"name": "The School District of Palm Beach County", "address": "3300 FOREST HILL BLVD # C-316", "state": "FL", "csm": "Deanna Berget", "ae": "Andy Graham", "segment": "Enterprise", "region": "Southeast", "students": "189777", "arr": "2050.00", "arr_12mo_ago": "303250.00", "gdr": "0.68", "ndr": "0.68", "lapsed_renewal": "0.00", "last_activity": "2/13/2026", "lat": 26.7153, "lng": -80.0534, "also_strategic": true, "strategic_name": "The School District of Palm Beach County"}, {"name": "Nettleton School District", "address": "3300 ONE PLACE", "state": "AR", "csm": "Casey Prohaska", "ae": "Paulina Famiano", "segment": "SMB", "region": "South-Central", "students": "3823", "arr": "6200.00", "arr_12mo_ago": "0.00", "gdr": "0.00", "ndr": "0.00", "lapsed_renewal": "0.00", "last_activity": "1/28/2026", "lat": 35.8195, "lng": -90.5557}, {"name": "Alameda Unified School District", "address": "2060 Challenger Dr", "state": "CA", "csm": "Casey Prohaska", "ae": "Brad Halsey", "segment": "Mid-Market", "region": "West", "students": "9061", "arr": "14000.00", "arr_12mo_ago": "0.00", "gdr": "0.00", "ndr": "0.00", "lapsed_renewal": "0.00", "last_activity": "12/24/2026", "lat": 37.7652, "lng": -122.2416}, {"name": "Aleutians East Borough School District", "address": "3380 C St Suite 205, Anchorage, AK 99503", "state": "AK", "csm": "Casey Prohaska", "ae": "Daniel Way", "segment": "Small", "region": "West", "students": "205", "arr": "3519.00", "arr_12mo_ago": "0.00", "gdr": "0.00", "ndr": "0.00", "lapsed_renewal": "0.00", "last_activity": "12/11/2025", "lat": 61.1869, "lng": -149.8885}, {"name": "Allegany County Public Schools", "address": "108 Washington Street", "state": "MD", "csm": "Deanna Berget", "ae": "John Tyrrell", "segment": "Mid-Market", "region": "Northeast", "students": "8205", "arr": "1637.00", "arr_12mo_ago": "0.00", "gdr": "0.00", "ndr": "0.00", "lapsed_renewal": "0.00", "last_activity": "1/16/2026", "lat": 39.6526, "lng": -78.7625}, {"name": "Alliance Collins Family College-Ready High District", "address": "2071 Saturn Ave.", "state": "CA", "csm": "Casey Prohaska", "ae": "Callie Brennan", "segment": "Small", "region": "West", "students": "618", "arr": "4890.00", "arr_12mo_ago": "0.00", "gdr": "0.00", "ndr": "0.00", "lapsed_renewal": "0.00", "last_activity": "1/30/2026", "lat": 33.9566, "lng": -118.2567}, {"name": "Lyon County School District", "address": "25 E. Goldfield Ave", "state": "NV", "csm": "Casey Prohaska", "ae": "Ben Skillman", "segment": "Mid-Market", "region": "West", "students": "9057", "arr": "0.00", "arr_12mo_ago": "0.00", "gdr": "0.00", "ndr": "0.00", "lapsed_renewal": "0.00", "last_activity": "1/30/2026", "lat": 39.2353, "lng": -119.2018}, {"name": "Maple Valley Public School District #4", "address": "209 3rd Ave, Tower City, ND 58071", "state": "ND", "csm": "Casey Prohaska", "ae": "Caroline Uhlarik", "segment": "Small", "region": "Midwest", "students": "244", "arr": "1756.60", "arr_12mo_ago": "0.00", "gdr": "0.00", "ndr": "0.00", "lapsed_renewal": "0.00", "last_activity": "2/4/2026", "lat": 46.9232, "lng": -97.6815}, {"name": "Arlington School District 3", "address": "1200 Main St.", "state": "OR", "csm": "Casey Prohaska", "ae": "Paulina Famiano", "segment": "Small", "region": "West", "students": "162", "arr": "2925.00", "arr_12mo_ago": "0.00", "gdr": "0.00", "ndr": "0.00", "lapsed_renewal": "0.00", "last_activity": "1/30/2026", "lat": 45.7237, "lng": -120.1971}, {"name": "Aztec Municipal Schools", "address": "1118 WEST AZTEC BLVD", "state": "NM", "csm": "Casey Prohaska", "ae": "Jonathan Pacheco", "segment": "SMB", "region": "South-Central", "students": "2522", "arr": "48654.00", "arr_12mo_ago": "0.00", "gdr": "0.00", "ndr": "0.00", "lapsed_renewal": "0.00", "last_activity": "12/8/2025", "lat": 36.8225, "lng": -107.9929}, {"name": "Big Horn County School District #1", "address": "505 S 5th St, Basin, WY 82410", "state": "WY", "csm": "Casey Prohaska", "ae": "Christina Ceballos", "segment": "SMB", "region": "West", "students": "1247", "arr": "8810.00", "arr_12mo_ago": "0.00", "gdr": "0.00", "ndr": "0.00", "lapsed_renewal": "0.00", "last_activity": "1/22/2026", "lat": 44.38, "lng": -108.0411}, {"name": "Bloomfield School District (Bloomfield Schools)", "address": "325 NORTH BERGIN LANE", "state": "NM", "csm": "Casey Prohaska", "ae": "Callie Brennan", "segment": "SMB", "region": "South-Central", "students": "2521", "arr": "56000.00", "arr_12mo_ago": "0.00", "gdr": "0.00", "ndr": "0.00", "lapsed_renewal": "0.00", "last_activity": "12/24/2026", "lat": 36.7112, "lng": -107.9848}, {"name": "Boone County Schools", "address": "69 Avenue B", "state": "WV", "csm": "Deanna Berget", "ae": "Daniel Way", "segment": "SMB", "region": "Southeast", "students": "3117", "arr": "8790.80", "arr_12mo_ago": "0.00", "gdr": "0.00", "ndr": "0.00", "lapsed_renewal": "0.00", "last_activity": "1/31/2026", "lat": 38.0491, "lng": -81.7137}, {"name": "Boston Public Schools", "address": "2300 Washington Street", "state": "MA", "csm": "", "ae": "John Tyrrell", "segment": "Enterprise", "region": "Northeast", "students": "45742", "arr": "2515.00", "arr_12mo_ago": "0.00", "gdr": "0.00", "ndr": "0.00", "lapsed_renewal": "0.00", "last_activity": "1/14/2026", "lat": 42.3601, "lng": -71.0589, "also_strategic": true, "strategic_name": "Boston"}, {"name": "Niobrara County School District #1", "address": "424 S Elm St, Lusk, WY 82225", "state": "WY", "csm": "Casey Prohaska", "ae": "Christina Ceballos", "segment": "Small", "region": "West", "students": "862", "arr": "0.00", "arr_12mo_ago": "0.00", "gdr": "0.00", "ndr": "0.00", "lapsed_renewal": "0.00", "last_activity": "10/21/2025", "lat": 42.7623, "lng": -104.4521}, {"name": "North Brookfield", "address": "10 New School Drive", "state": "MA", "csm": "Deanna Berget", "ae": "Marixza Acuna", "segment": "Small", "region": "Northeast", "students": "407", "arr": "12515.01", "arr_12mo_ago": "0.00", "gdr": "0.00", "ndr": "0.00", "lapsed_renewal": "0.00", "last_activity": "1/28/2026", "lat": 42.2662, "lng": -72.0827}, {"name": "Calvert County Public Schools", "address": "1305 Dares Beach Road", "state": "MD", "csm": "Deanna Berget", "ae": "John Tyrrell", "segment": "Mid-Market", "region": "Northeast", "students": "15179", "arr": "3878.00", "arr_12mo_ago": "0.00", "gdr": "0.00", "ndr": "0.00", "lapsed_renewal": "0.00", "last_activity": "6/4/2026", "lat": 38.5346, "lng": -76.506}, {"name": "Cambridge Public Schools", "address": "135 Berkshire Street", "state": "MA", "csm": "Deanna Berget", "ae": "John Tyrrell", "segment": "Mid-Market", "region": "Northeast", "students": "6915", "arr": "34500.00", "arr_12mo_ago": "0.00", "gdr": "0.00", "ndr": "0.00", "lapsed_renewal": "0.00", "last_activity": "7/16/2026", "lat": 42.3736, "lng": -71.1097}, {"name": "Okaloosa County School District", "address": "120 LOWERY PL SE", "state": "FL", "csm": "Deanna Berget", "ae": "Andy Graham", "segment": "Enterprise", "region": "Southeast", "students": "32426", "arr": "23107.95", "arr_12mo_ago": "0.00", "gdr": "0.00", "ndr": "0.00", "lapsed_renewal": "0.00", "last_activity": "7/10/2026", "lat": 30.5105, "lng": -86.4885, "also_strategic": true, "strategic_name": "Okaloosa"}, {"name": "Old Forge School District", "address": "300 Marion St", "state": "PA", "csm": "Deanna Berget", "ae": "Sydney Levenfeld", "segment": "Small", "region": "Northeast", "students": "958", "arr": "2600.00", "arr_12mo_ago": "0.00", "gdr": "0.00", "ndr": "0.00", "lapsed_renewal": "0.00", "last_activity": "12/8/2025", "lat": 41.3709, "lng": -75.7349}, {"name": "Ontario-Montclair School District", "address": "950 West D St.", "state": "CA", "csm": "Casey Prohaska", "ae": "Brad Halsey", "segment": "Mid-Market", "region": "West", "students": "17944", "arr": "49304.00", "arr_12mo_ago": "0.00", "gdr": "0.00", "ndr": "0.00", "lapsed_renewal": "0.00", "last_activity": "1/25/2027", "lat": 34.0633, "lng": -117.6509}, {"name": "Charlottesville City Schools", "address": "1562 Dairy Rd", "state": "VA", "csm": "Deanna Berget", "ae": "Daniel Way", "segment": "SMB", "region": "Southeast", "students": "4433", "arr": "6200.00", "arr_12mo_ago": "0.00", "gdr": "0.00", "ndr": "0.00", "lapsed_renewal": "0.00", "last_activity": "7/21/2026", "lat": 38.0293, "lng": -78.4767}, {"name": "Charter Institute at Erskine", "address": "1201 Main Street Suite 300", "state": "SC", "csm": "Deanna Berget", "ae": "Samantha Santucci", "segment": "Enterprise", "region": "Southeast", "students": "25146", "arr": "6030.00", "arr_12mo_ago": "0.00", "gdr": "0.00", "ndr": "0.00", "lapsed_renewal": "0.00", "last_activity": "1/27/2026", "lat": 34.0007, "lng": -81.0348}, {"name": "Cherokee County Schools", "address": "130 E Main St", "state": "AL", "csm": "Deanna Berget", "ae": "Zac Otwell", "segment": "SMB", "region": "Southeast", "students": "3917", "arr": "24060.00", "arr_12mo_ago": "0.00", "gdr": "0.00", "ndr": "0.00", "lapsed_renewal": "0.00", "last_activity": "2/3/2026", "lat": 34.1754, "lng": -85.6141}, {"name": "Cincinnati Public Schools", "address": "2651 Burnet Ave, Cincinnati, OH 45219", "state": "OH", "csm": "Casey Prohaska", "ae": "Andy Graham", "segment": "Enterprise", "region": "Midwest", "students": "34860", "arr": "7890.00", "arr_12mo_ago": "0.00", "gdr": "0.00", "ndr": "0.00", "lapsed_renewal": "0.00", "last_activity": "1/31/2026", "lat": 39.1295, "lng": -84.5133, "also_strategic": true, "strategic_name": "Cincinnati Public Schools"}, {"name": "School District of Pickens County", "address": "1348 Griffin Mill Road", "state": "SC", "csm": "Deanna Berget", "ae": "Andy Graham", "segment": "Mid-Market", "region": "Southeast", "students": "16223", "arr": "0.00", "arr_12mo_ago": "0.00", "gdr": "0.00", "ndr": "0.00", "lapsed_renewal": "0.00", "last_activity": "2/5/2026", "lat": 34.8835, "lng": -82.7176}, {"name": "Pinellas County Schools", "address": "301 4TH ST SW", "state": "FL", "csm": "Deanna Berget", "ae": "Andy Graham", "segment": "Enterprise", "region": "Southeast", "students": "91021", "arr": "149962.20", "arr_12mo_ago": "0.00", "gdr": "0.00", "ndr": "0.00", "lapsed_renewal": "0.00", "last_activity": "7/6/2026", "lat": 27.7706, "lng": -82.6793, "also_strategic": true, "strategic_name": "Pinellas County Schools"}, {"name": "Pojoaque Valley School District", "address": "1574 STATE ROAD 502 WEST", "state": "NM", "csm": "Casey Prohaska", "ae": "Jonathan Pacheco", "segment": "SMB", "region": "South-Central", "students": "1562", "arr": "22400.00", "arr_12mo_ago": "0.00", "gdr": "0.00", "ndr": "0.00", "lapsed_renewal": "0.00", "last_activity": "12/25/2026", "lat": 35.8931, "lng": -106.0235}, {"name": "Princeton City Schools", "address": "3900 Cottingham Dr", "state": "OH", "csm": "Casey Prohaska", "ae": "Samantha Santucci", "segment": "Mid-Market", "region": "Midwest", "students": "5940", "arr": "3800.00", "arr_12mo_ago": "0.00", "gdr": "0.00", "ndr": "0.00", "lapsed_renewal": "0.00", "last_activity": "12/18/2025", "lat": 39.2672, "lng": -84.453}, {"name": "Pueblo School District 60", "address": "315 WEST 11TH STREET", "state": "CO", "csm": "Casey Prohaska", "ae": "Aric Walden", "segment": "Mid-Market", "region": "West", "students": "14567", "arr": "98600.00", "arr_12mo_ago": "0.00", "gdr": "0.00", "ndr": "0.00", "lapsed_renewal": "0.00", "last_activity": "12/10/2026", "lat": 38.2545, "lng": -104.6091}, {"name": "Dayton Public Schools", "address": "136 S Ludlow St", "state": "OH", "csm": "Casey Prohaska", "ae": "Samantha Santucci", "segment": "Mid-Market", "region": "Midwest", "students": "12441", "arr": "136300.00", "arr_12mo_ago": "0.00", "gdr": "0.00", "ndr": "0.00", "lapsed_renewal": "0.00", "last_activity": "12/15/2026", "lat": 39.7589, "lng": -84.1916}, {"name": "Dinuba Unified School District", "address": "1327 East El Monte Way", "state": "CA", "csm": "", "ae": "Aric Walden", "segment": "Mid-Market", "region": "West", "students": "6313", "arr": "0.00", "arr_12mo_ago": "0.00", "gdr": "0.00", "ndr": "0.00", "lapsed_renewal": "0.00", "last_activity": "12/16/2026", "lat": 36.543, "lng": -119.3871}, {"name": "Dunkirk City School District", "address": "620 MARAUDER DR", "state": "NY", "csm": "Deanna Berget", "ae": "Sydney Levenfeld", "segment": "SMB", "region": "Northeast", "students": "2015", "arr": "28260.00", "arr_12mo_ago": "0.00", "gdr": "0.00", "ndr": "0.00", "lapsed_renewal": "0.00", "last_activity": "7/1/2026", "lat": 42.4834, "lng": -79.334}, {"name": "Rockdale County Public Schools", "address": "960 Pine Street", "state": "GA", "csm": "Deanna Berget", "ae": "Andy Graham", "segment": "Mid-Market", "region": "Southeast", "students": "15384", "arr": "48699.70", "arr_12mo_ago": "0.00", "gdr": "0.00", "ndr": "0.00", "lapsed_renewal": "0.00", "last_activity": "1/28/2026", "lat": 33.6551, "lng": -84.0166}, {"name": "Rogers Public Schools", "address": "500 W WALNUT ST", "state": "AR", "csm": "Casey Prohaska", "ae": "Samantha Santucci", "segment": "Mid-Market", "region": "South-Central", "students": "15559", "arr": "36500.00", "arr_12mo_ago": "0.00", "gdr": "0.00", "ndr": "0.00", "lapsed_renewal": "0.00", "last_activity": "1/28/2026", "lat": 36.3321, "lng": -94.1185}, {"name": "E.L. Haynes Public Charter School", "address": "3600 GEORGIA AVENUE NW", "state": "DC", "csm": "Deanna Berget", "ae": "Marixza Acuna", "segment": "SMB", "region": "Northeast", "students": "1173", "arr": "10130.00", "arr_12mo_ago": "0.00", "gdr": "0.00", "ndr": "0.00", "lapsed_renewal": "0.00", "last_activity": "1/15/2026", "lat": 38.9421, "lng": -77.0218}, {"name": "Roswell Independent Schools", "address": "300 N. KENTUCKY", "state": "NM", "csm": "Casey Prohaska", "ae": "Sydney Smith", "segment": "Mid-Market", "region": "South-Central", "students": "9386", "arr": "9260.00", "arr_12mo_ago": "0.00", "gdr": "0.00", "ndr": "0.00", "lapsed_renewal": "0.00", "last_activity": "2/2/2026", "lat": 33.3943, "lng": -104.523}, {"name": "Rowland Unified School District", "address": "1830 South Nogales St.", "state": "CA", "csm": "Casey Prohaska", "ae": "Brad Halsey", "segment": "Mid-Market", "region": "West", "students": "11623", "arr": "2490.00", "arr_12mo_ago": "0.00", "gdr": "0.00", "ndr": "0.00", "lapsed_renewal": "0.00", "last_activity": "1/30/2026", "lat": 33.9904, "lng": -117.8931}, {"name": "Russell County Public Schools", "address": "P. O. Box 8", "state": "VA", "csm": "Deanna Berget", "ae": "Daniel Way", "segment": "SMB", "region": "Southeast", "students": "3454", "arr": "46017.50", "arr_12mo_ago": "0.00", "gdr": "0.00", "ndr": "0.00", "lapsed_renewal": "0.00", "last_activity": "2/13/2026", "lat": 36.9458, "lng": -82.0953}, {"name": "San Francisco Unified School District", "address": "555 Franklin St.", "state": "CA", "csm": "Casey Prohaska", "ae": "Aric Walden", "segment": "Enterprise", "region": "West", "students": "48736", "arr": "38050.00", "arr_12mo_ago": "0.00", "gdr": "0.00", "ndr": "0.00", "lapsed_renewal": "0.00", "last_activity": "6/1/2026", "lat": 37.7749, "lng": -122.4194, "also_strategic": true, "strategic_name": "San Francisco Unified"}, {"name": "El Dorado Union High School District", "address": "4675 Missouri Flat Rd.", "state": "CA", "csm": "Casey Prohaska", "ae": "Aric Walden", "segment": "Mid-Market", "region": "West", "students": "6541", "arr": "17393.30", "arr_12mo_ago": "0.00", "gdr": "0.00", "ndr": "0.00", "lapsed_renewal": "0.00", "last_activity": "1/15/2027", "lat": 38.7296, "lng": -120.7984}, {"name": "Santa Fe Public Schools", "address": "610 ALTA VISTA ST.", "state": "NM", "csm": "Casey Prohaska", "ae": "Sydney Smith", "segment": "Mid-Market", "region": "South-Central", "students": "11490", "arr": "22475.00", "arr_12mo_ago": "0.00", "gdr": "0.00", "ndr": "0.00", "lapsed_renewal": "0.00", "last_activity": "2/4/2026", "lat": 35.687, "lng": -105.9378}, {"name": "School District No. 1 in the City and County of Denver and State of CO", "address": "1860 LINCOLN ST", "state": "CO", "csm": "Casey Prohaska", "ae": "Aric Walden", "segment": "Enterprise", "region": "West", "students": "88258", "arr": "12200.00", "arr_12mo_ago": "0.00", "gdr": "0.00", "ndr": "0.00", "lapsed_renewal": "0.00", "last_activity": "1/27/2026", "lat": 39.7392, "lng": -104.9903, "also_strategic": true, "strategic_name": "School District No. 1 In The County Of Denver And State Of C"}, {"name": "Escondido Union High School District", "address": "302 North Midway Dr.", "state": "CA", "csm": "Casey Prohaska", "ae": "Brad Halsey", "segment": "Mid-Market", "region": "West", "students": "6544", "arr": "76655.00", "arr_12mo_ago": "0.00", "gdr": "0.00", "ndr": "0.00", "lapsed_renewal": "0.00", "last_activity": "1/4/2027", "lat": 33.1192, "lng": -117.0864}, {"name": "Espa\u00f1ola Public Schools", "address": "405 HUNTER ST", "state": "NM", "csm": "Casey Prohaska", "ae": "Callie Brennan", "segment": "SMB", "region": "South-Central", "students": "2852", "arr": "59060.00", "arr_12mo_ago": "0.00", "gdr": "0.00", "ndr": "0.00", "lapsed_renewal": "0.00", "last_activity": "1/26/2027", "lat": 36.0042, "lng": -106.0648}, {"name": "Shenendehowa Central School District", "address": "5 CHELSEA PL", "state": "NY", "csm": "Deanna Berget", "ae": "Victoria Macoul", "segment": "Mid-Market", "region": "Northeast", "students": "9328", "arr": "9500.00", "arr_12mo_ago": "0.00", "gdr": "0.00", "ndr": "0.00", "lapsed_renewal": "0.00", "last_activity": "11/6/2025", "lat": 42.858, "lng": -73.8027}, {"name": "Sheridan County School District #3", "address": "1 Wolverine Trail, Clearmont, WY 82835", "state": "WY", "csm": "Casey Prohaska", "ae": "Christina Ceballos", "segment": "Small", "region": "West", "students": "81", "arr": "3100.00", "arr_12mo_ago": "0.00", "gdr": "0.00", "ndr": "0.00", "lapsed_renewal": "0.00", "last_activity": "5/7/2025", "lat": 44.6246, "lng": -106.8636}, {"name": "Fall River Public Schools", "address": "417 Rock Street", "state": "MA", "csm": "Deanna Berget", "ae": "Samantha Santucci", "segment": "Mid-Market", "region": "Northeast", "students": "10656", "arr": "0.00", "arr_12mo_ago": "0.00", "gdr": "0.00", "ndr": "0.00", "lapsed_renewal": "0.00", "last_activity": "1/29/2026", "lat": 41.7015, "lng": -71.155}, {"name": "Florence City Schools", "address": "541 Riverview Drive", "state": "AL", "csm": "Deanna Berget", "ae": "Paulina Famiano", "segment": "SMB", "region": "Southeast", "students": "4519", "arr": "6558.80", "arr_12mo_ago": "0.00", "gdr": "0.00", "ndr": "0.00", "lapsed_renewal": "0.00", "last_activity": "3/6/2026", "lat": 34.7998, "lng": -87.6772}, {"name": "Fremont County School District #14", "address": "638 Blue Sky Highway", "state": "WY", "csm": "Casey Prohaska", "ae": "Christina Ceballos", "segment": "Small", "region": "West", "students": "578", "arr": "4365.00", "arr_12mo_ago": "0.00", "gdr": "0.00", "ndr": "0.00", "lapsed_renewal": "0.00", "last_activity": "8/29/2025", "lat": 43.0096, "lng": -108.379}, {"name": "Fremont County School District #38", "address": "445 Little Wind River Bottom Road", "state": "WY", "csm": "Casey Prohaska", "ae": "Christina Ceballos", "segment": "Small", "region": "West", "students": "445", "arr": "19475.00", "arr_12mo_ago": "0.00", "gdr": "0.00", "ndr": "0.00", "lapsed_renewal": "0.00", "last_activity": "8/12/2026", "lat": 42.8614, "lng": -108.7307}, {"name": "Springfield Public Schools", "address": "1550 Main Street", "state": "MA", "csm": "Deanna Berget", "ae": "John Tyrrell", "segment": "Enterprise", "region": "Northeast", "students": "23693", "arr": "62735.00", "arr_12mo_ago": "0.00", "gdr": "0.00", "ndr": "0.00", "lapsed_renewal": "0.00", "last_activity": "2/4/2026", "lat": 42.1015, "lng": -72.5898}, {"name": "St. Cloud Public School District", "address": "1201 2ND ST S", "state": "MN", "csm": "Casey Prohaska", "ae": "Brad Halsey", "segment": "Mid-Market", "region": "Midwest", "students": "9543", "arr": "49385.60", "arr_12mo_ago": "0.00", "gdr": "0.00", "ndr": "0.00", "lapsed_renewal": "0.00", "last_activity": "1/22/2026", "lat": 45.5616, "lng": -94.1636}, {"name": "Stamford Public Schools", "address": "Box 9310", "state": "CT", "csm": "Deanna Berget", "ae": "Victoria Macoul", "segment": "Mid-Market", "region": "Northeast", "students": "16339", "arr": "14740.00", "arr_12mo_ago": "0.00", "gdr": "0.00", "ndr": "0.00", "lapsed_renewal": "0.00", "last_activity": "2/2/2026", "lat": 41.0534, "lng": -73.5387}, {"name": "Glascock County School District", "address": "738 Railroad Ave.", "state": "GA", "csm": "Deanna Berget", "ae": "Paulina Famiano", "segment": "Small", "region": "Southeast", "students": "567", "arr": "9260.00", "arr_12mo_ago": "0.00", "gdr": "0.00", "ndr": "0.00", "lapsed_renewal": "0.00", "last_activity": "11/12/2025", "lat": 33.2266, "lng": -82.611}, {"name": "Sublette County School District #9", "address": "665 N Tyler Ave, Pinedale, WY 82941", "state": "WY", "csm": "Casey Prohaska", "ae": "Christina Ceballos", "segment": "Small", "region": "West", "students": "440", "arr": "4100.00", "arr_12mo_ago": "0.00", "gdr": "0.00", "ndr": "0.00", "lapsed_renewal": "0.00", "last_activity": "10/20/2025", "lat": 42.8691, "lng": -109.8618}, {"name": "Grants Cibola County Schools", "address": "799 A St, Grants, NM 87020", "state": "NM", "csm": "Casey Prohaska", "ae": "Jonathan Pacheco", "segment": "SMB", "region": "South-Central", "students": "3240", "arr": "21495.00", "arr_12mo_ago": "0.00", "gdr": "0.00", "ndr": "0.00", "lapsed_renewal": "0.00", "last_activity": "2/4/2026", "lat": 35.1464, "lng": -107.8519}, {"name": "Gravette School District", "address": "609 BIRMINGHAM ST. SE", "state": "AR", "csm": "Casey Prohaska", "ae": "Paulina Famiano", "segment": "SMB", "region": "South-Central", "students": "2126", "arr": "19350.00", "arr_12mo_ago": "0.00", "gdr": "0.00", "ndr": "0.00", "lapsed_renewal": "0.00", "last_activity": "1/27/2026", "lat": 36.422, "lng": -94.4528}, {"name": "Greene County Schools", "address": "910 Summer ST", "state": "TN", "csm": "Deanna Berget", "ae": "Samantha Santucci", "segment": "Mid-Market", "region": "Southeast", "students": "6121", "arr": "4838.60", "arr_12mo_ago": "0.00", "gdr": "0.00", "ndr": "0.00", "lapsed_renewal": "0.00", "last_activity": "2/18/2026", "lat": 36.1627, "lng": -82.8032}, {"name": "Thomas County Schools", "address": "11343 U.S. Hwy. 319N", "state": "GA", "csm": "Deanna Berget", "ae": "Andy Graham", "segment": "Mid-Market", "region": "Southeast", "students": "5791", "arr": "18992.00", "arr_12mo_ago": "0.00", "gdr": "0.00", "ndr": "0.00", "lapsed_renewal": "0.00", "last_activity": "1/28/2026", "lat": 30.8368, "lng": -83.9779}, {"name": "Valdosta City Schools", "address": "1204 Williams St.", "state": "GA", "csm": "Deanna Berget", "ae": "Andy Graham", "segment": "Mid-Market", "region": "Southeast", "students": "8406", "arr": "23500.00", "arr_12mo_ago": "0.00", "gdr": "0.00", "ndr": "0.00", "lapsed_renewal": "0.00", "last_activity": "2/5/2026", "lat": 30.8327, "lng": -83.2785}, {"name": "Vineland Public Schools", "address": "61 W Landis Ave", "state": "NJ", "csm": "Deanna Berget", "ae": "Ally McCready", "segment": "Mid-Market", "region": "Northeast", "students": "10317", "arr": "52280.70", "arr_12mo_ago": "0.00", "gdr": "0.00", "ndr": "0.00", "lapsed_renewal": "0.00", "last_activity": "8/6/2026", "lat": 39.4863, "lng": -75.026}, {"name": "Waco Independent School District", "address": "P O BOX 27", "state": "TX", "csm": "Casey Prohaska", "ae": "Brad Halsey", "segment": "Mid-Market", "region": "South-Central", "students": "13517", "arr": "26285.00", "arr_12mo_ago": "0.00", "gdr": "0.00", "ndr": "0.00", "lapsed_renewal": "0.00", "last_activity": "12/1/2026", "lat": 31.5493, "lng": -97.1467}, {"name": "Washington Local Schools", "address": "3505 W Lincolnshire Blvd", "state": "OH", "csm": "Casey Prohaska", "ae": "Samantha Santucci", "segment": "Mid-Market", "region": "Midwest", "students": "6771", "arr": "11960.00", "arr_12mo_ago": "0.00", "gdr": "0.00", "ndr": "0.00", "lapsed_renewal": "0.00", "last_activity": "12/9/2026", "lat": 41.6926, "lng": -83.6267}, {"name": "Kalamazoo Public Schools", "address": "1220 Howard St", "state": "MI", "csm": "Casey Prohaska", "ae": "Samantha Santucci", "segment": "Mid-Market", "region": "Midwest", "students": "12323", "arr": "2900.00", "arr_12mo_ago": "0.00", "gdr": "0.00", "ndr": "0.00", "lapsed_renewal": "0.00", "last_activity": "1/26/2026", "lat": 42.2917, "lng": -85.5872}, {"name": "SAU #65 Kearsarge", "address": "114 Cougar Court", "state": "NH", "csm": "Deanna Berget", "ae": "Sydney Levenfeld", "segment": "SMB", "region": "Northeast", "students": "1676", "arr": "32366.65", "arr_12mo_ago": "0.00", "gdr": "0.00", "ndr": "0.00", "lapsed_renewal": "0.00", "last_activity": "2/6/2026", "lat": 43.4273, "lng": -71.9183}, {"name": "Wichita Public Schools", "address": "903 S Edgemoor", "state": "KS", "csm": "Casey Prohaska", "ae": "Aric Walden", "segment": "Enterprise", "region": "Midwest", "students": "46516", "arr": "19850.00", "arr_12mo_ago": "0.00", "gdr": "0.00", "ndr": "0.00", "lapsed_renewal": "0.00", "last_activity": "1/5/2027", "lat": 37.6872, "lng": -97.3301, "also_strategic": true, "strategic_name": "Wichita"}, {"name": "Winton Woods City School District", "address": "825 Waycross Rd Ste A", "state": "OH", "csm": "Casey Prohaska", "ae": "Caroline Uhlarik", "segment": "SMB", "region": "Midwest", "students": "3916", "arr": "9400.00", "arr_12mo_ago": "0.00", "gdr": "0.00", "ndr": "0.00", "lapsed_renewal": "0.00", "last_activity": "4/7/2025", "lat": 39.223, "lng": -84.4345}, {"name": "Wood County Schools", "address": "1210 13th Street", "state": "WV", "csm": "Deanna Berget", "ae": "John Tyrrell", "segment": "Mid-Market", "region": "Southeast", "students": "11310", "arr": "92025.00", "arr_12mo_ago": "0.00", "gdr": "0.00", "ndr": "0.00", "lapsed_renewal": "0.00", "last_activity": "7/8/2026", "lat": 39.2654, "lng": -81.5615}, {"name": "Zuni Public School District", "address": "20 Zuni Learning Ctr, Zuni, NM 87327", "state": "NM", "csm": "Casey Prohaska", "ae": "Callie Brennan", "segment": "SMB", "region": "South-Central", "students": "1244", "arr": "22000.00", "arr_12mo_ago": "0.00", "gdr": "0.00", "ndr": "0.00", "lapsed_renewal": "0.00", "last_activity": "1/13/2026", "lat": 35.0695, "lng": -108.8512}, {"name": "Lamad Academy Charter School", "address": "1060 CLARKSON AVE-4TH FL", "state": "NY", "csm": "James Kennedy", "ae": "Ally McCready", "segment": "Small", "region": "Northeast", "students": "167", "arr": "2052.00", "arr_12mo_ago": "0.00", "gdr": "0.00", "ndr": "0.00", "lapsed_renewal": "0.00", "last_activity": "7/15/2026", "lat": 40.6735, "lng": -73.9381}, {"name": "The School District of Lee County", "address": "2855 COLONIAL BLVD", "state": "FL", "csm": "Deanna Berget", "ae": "Andy Graham", "segment": "Enterprise", "region": "Southeast", "students": "100064", "arr": "253400.00", "arr_12mo_ago": "0.00", "gdr": "0.00", "ndr": "0.00", "lapsed_renewal": "0.00", "last_activity": "7/3/2026", "lat": 26.6195, "lng": -81.8303, "also_strategic": true, "strategic_name": "The School District of Lee County"}, {"name": "Academy of Finance and Enterprise", "address": "30-20 Thomson Avenue", "state": "NY", "csm": "James Kennedy", "ae": "Ben Foley", "segment": "Enterprise", "region": "Northeast", "students": "50843", "arr": "20730.00", "arr_12mo_ago": "0.00", "gdr": "0.00", "ndr": "0.00", "lapsed_renewal": "0.00", "last_activity": "7/16/2026", "lat": 40.7505, "lng": -73.9393}, {"name": "William Cullen Bryant High School", "address": "48-10 31st Avenue", "state": "NY", "csm": "James Kennedy", "ae": "Ben Foley", "segment": "Enterprise", "region": "Northeast", "students": "37414", "arr": "11630.00", "arr_12mo_ago": "0.00", "gdr": "0.00", "ndr": "0.00", "lapsed_renewal": "0.00", "last_activity": "1/4/2027", "lat": 40.756, "lng": -73.9239}, {"name": "John Dewey High School", "address": "50 Avenue X", "state": "NY", "csm": "James Kennedy", "ae": "Ben Foley", "segment": "Enterprise", "region": "Northeast", "students": "34525", "arr": "0.00", "arr_12mo_ago": "5450.00", "gdr": "0.00", "ndr": "0.00", "lapsed_renewal": "5450.00", "last_activity": "7/1/2026", "lat": 40.5892, "lng": -73.978}, {"name": "High School of Applied Communication", "address": "30-20 Thomson Avenue", "state": "NY", "csm": "James Kennedy", "ae": "Ben Foley", "segment": "Enterprise", "region": "Northeast", "students": "50843", "arr": "0.00", "arr_12mo_ago": "0.00", "gdr": "0.00", "ndr": "0.00", "lapsed_renewal": "14000.00", "last_activity": "7/10/2026", "lat": 40.6866, "lng": -73.9284}, {"name": "Gregorio Luperon High School for Science and Mathematics", "address": "501 West 165th Street", "state": "NY", "csm": "James Kennedy", "ae": "Ben Foley", "segment": "Mid-Market", "region": "Northeast", "students": "17940", "arr": "8010.00", "arr_12mo_ago": "0.00", "gdr": "0.00", "ndr": "0.00", "lapsed_renewal": "0.00", "last_activity": "3/2/2026", "lat": 40.851, "lng": -73.935}, {"name": "Union Square Academy for Health Sciences", "address": "40 Irving Place", "state": "NY", "csm": "James Kennedy", "ae": "Ben Foley", "segment": "Enterprise", "region": "Northeast", "students": "55421", "arr": "13650.00", "arr_12mo_ago": "0.00", "gdr": "0.00", "ndr": "0.00", "lapsed_renewal": "0.00", "last_activity": "9/18/2025", "lat": 40.7349, "lng": -73.9888}, {"name": "High School for Climate Justice", "address": "320 East 96 Street", "state": "NY", "csm": "James Kennedy", "ae": "Ben Foley", "segment": "Enterprise", "region": "Northeast", "students": "55421", "arr": "3925.00", "arr_12mo_ago": "0.00", "gdr": "0.00", "ndr": "0.00", "lapsed_renewal": "0.00", "last_activity": "1/29/2026", "lat": 40.6866, "lng": -73.9755}, {"name": "Townsend Harris High School", "address": "", "state": "", "csm": "James Kennedy", "ae": "Ben Foley", "segment": "Enterprise", "region": "Northeast", "students": "34702", "arr": "3320.00", "arr_12mo_ago": "0.00", "gdr": "0.00", "ndr": "0.00", "lapsed_renewal": "0.00", "last_activity": "7/8/2026", "lat": 40.7369, "lng": -73.8211}, {"name": "Brooklyn Community Arts and Media High School", "address": "300 Willoughby Avenue", "state": "NY", "csm": "James Kennedy", "ae": "Ben Foley", "segment": "Mid-Market", "region": "Northeast", "students": "19232", "arr": "5247.00", "arr_12mo_ago": "0.00", "gdr": "0.00", "ndr": "0.00", "lapsed_renewal": "0.00", "last_activity": "3/5/2026", "lat": 40.6953, "lng": -73.9285}, {"name": "Science Skills Center High School for Science, Technology and the Creative Arts", "address": "49 Flatbush Avenue", "state": "NY", "csm": "James Kennedy", "ae": "Ben Foley", "segment": "Mid-Market", "region": "Northeast", "students": "19232", "arr": "6782.00", "arr_12mo_ago": "0.00", "gdr": "0.00", "ndr": "0.00", "lapsed_renewal": "0.00", "last_activity": "1/14/2026", "lat": 40.658, "lng": -73.957}, {"name": "High School for Enterprise, Business and Technology", "address": "850 Grand St.", "state": "NY", "csm": "James Kennedy", "ae": "Ben Foley", "segment": "Mid-Market", "region": "Northeast", "students": "15196", "arr": "13650.00", "arr_12mo_ago": "0.00", "gdr": "0.00", "ndr": "0.00", "lapsed_renewal": "0.00", "last_activity": "11/18/2025", "lat": 40.6952, "lng": -73.9237}, {"name": "Brooklyn Preparatory High School", "address": "257 North 6th Street", "state": "NY", "csm": "James Kennedy", "ae": "Ben Foley", "segment": "Mid-Market", "region": "Northeast", "students": "15196", "arr": "11170.00", "arr_12mo_ago": "0.00", "gdr": "0.00", "ndr": "0.00", "lapsed_renewal": "0.00", "last_activity": "1/29/2026", "lat": 40.69, "lng": -73.9534}, {"name": "Williamsburg High School of Arts and Technology", "address": "223 Graham Avenue", "state": "NY", "csm": "James Kennedy", "ae": "Ben Foley", "segment": "Mid-Market", "region": "Northeast", "students": "15196", "arr": "8450.00", "arr_12mo_ago": "0.00", "gdr": "0.00", "ndr": "0.00", "lapsed_renewal": "0.00", "last_activity": "9/12/2025", "lat": 40.7102, "lng": -73.953}, {"name": "Academy for Excellence in Leadership", "address": "400 Irving Avenue", "state": "NY", "csm": "James Kennedy", "ae": "Ally McCready", "segment": "Mid-Market", "region": "Northeast", "students": "9633", "arr": "7883.80", "arr_12mo_ago": "0.00", "gdr": "0.00", "ndr": "0.00", "lapsed_renewal": "0.00", "last_activity": "12/23/2025", "lat": 40.6715, "lng": -73.908}, {"name": "Brooklyn Institute for Liberal Arts", "address": "600 Kingston Avenue", "state": "NY", "csm": "James Kennedy", "ae": "Ben Foley", "segment": "Mid-Market", "region": "Northeast", "students": "", "arr": "4622.00", "arr_12mo_ago": "0.00", "gdr": "0.00", "ndr": "0.00", "lapsed_renewal": "0.00", "last_activity": "12/16/2025", "lat": 40.6863, "lng": -73.9746}, {"name": "Academy for College Preparation and Career Exploration", "address": "911 Flatbush Avenue", "state": "NY", "csm": "James Kennedy", "ae": "Ben Foley", "segment": "Mid-Market", "region": "Northeast", "students": "", "arr": "12748.00", "arr_12mo_ago": "0.00", "gdr": "0.00", "ndr": "0.00", "lapsed_renewal": "0.00", "last_activity": "7/20/2026", "lat": 40.8265, "lng": -73.8998}, {"name": "Cultural Academy for the Arts and Sciences", "address": "5800 Tilden Avenue", "state": "NY", "csm": "James Kennedy", "ae": "Ally McCready", "segment": "Mid-Market", "region": "Northeast", "students": "", "arr": "7850.00", "arr_12mo_ago": "0.00", "gdr": "0.00", "ndr": "0.00", "lapsed_renewal": "0.00", "last_activity": "12/28/2026", "lat": 40.8358, "lng": -73.8502}, {"name": "Robert F. Kennedy Community High School", "address": "75-40 Parsons Boulevard", "state": "NY", "csm": "James Kennedy", "ae": "Ben Foley", "segment": "Enterprise", "region": "Northeast", "students": "34702", "arr": "4475.00", "arr_12mo_ago": "0.00", "gdr": "0.00", "ndr": "0.00", "lapsed_renewal": "0.00", "last_activity": "12/24/2026", "lat": 40.7505, "lng": -73.9393}, {"name": "Grover Cleveland High School", "address": "21-27 Himrod Street", "state": "NY", "csm": "James Kennedy", "ae": "Ben Foley", "segment": "Enterprise", "region": "Northeast", "students": "50843", "arr": "25000.00", "arr_12mo_ago": "0.00", "gdr": "0.00", "ndr": "0.00", "lapsed_renewal": "0.00", "last_activity": "6/20/2025", "lat": 40.724, "lng": -73.863}, {"name": "Long Island City High School", "address": "", "state": "NY", "csm": "James Kennedy", "ae": "Ben Foley", "segment": "Enterprise", "region": "Northeast", "students": "37414", "arr": "8605.00", "arr_12mo_ago": "0.00", "gdr": "0.00", "ndr": "0.00", "lapsed_renewal": "0.00", "last_activity": "1/12/2027", "lat": 40.7505, "lng": -73.9393}, {"name": "Herbert H. Lehman High School", "address": "3000 East Tremont Avenue", "state": "NY", "csm": "James Kennedy", "ae": "Ben Foley", "segment": "Enterprise", "region": "Northeast", "students": "24000", "arr": "16110.00", "arr_12mo_ago": "0.00", "gdr": "0.00", "ndr": "0.00", "lapsed_renewal": "0.00", "last_activity": "7/17/2026", "lat": 40.8559, "lng": -73.8643}, {"name": "Maspeth High School", "address": "41-54 74th Street", "state": "NY", "csm": "James Kennedy", "ae": "Ben Foley", "segment": "Enterprise", "region": "Northeast", "students": "50843", "arr": "4520.00", "arr_12mo_ago": "0.00", "gdr": "0.00", "ndr": "0.00", "lapsed_renewal": "0.00", "last_activity": "12/21/2026", "lat": 40.7252, "lng": -73.8919}, {"name": "State Charter School Institute", "address": "1525 SHERMAN ST. B76", "state": "CO", "csm": "Casey Prohaska", "ae": "Aric Walden", "segment": "Mid-Market", "region": "West", "students": "19593", "arr": "0.00", "arr_12mo_ago": "0.00", "gdr": "0.00", "ndr": "0.00", "lapsed_renewal": "0.00", "last_activity": "1/21/2026", "lat": 39.7472, "lng": -104.9896}, {"name": "Queens School of Inquiry", "address": "", "state": "NY", "csm": "James Kennedy", "ae": "Ben Foley", "segment": "Enterprise", "region": "Northeast", "students": "34702", "arr": "13650.00", "arr_12mo_ago": "0.00", "gdr": "0.00", "ndr": "0.00", "lapsed_renewal": "0.00", "last_activity": "9/16/2025", "lat": 40.7505, "lng": -73.9393}, {"name": "Northwell School of Health Sciences", "address": "", "state": "NY", "csm": "James Kennedy", "ae": "Ally McCready", "segment": "Enterprise", "region": "Northeast", "students": "37414", "arr": "9650.00", "arr_12mo_ago": "0.00", "gdr": "0.00", "ndr": "0.00", "lapsed_renewal": "0.00", "last_activity": "11/18/2025", "lat": 40.7677, "lng": -73.8131}, {"name": "East New York Family Academy", "address": "145 Pennsylvania Avenue", "state": "NY", "csm": "James Kennedy", "ae": "Ben Foley", "segment": "Mid-Market", "region": "Northeast", "students": "19963", "arr": "15960.00", "arr_12mo_ago": "0.00", "gdr": "0.00", "ndr": "0.00", "lapsed_renewal": "0.00", "last_activity": "12/17/2026", "lat": 40.658, "lng": -73.887}, {"name": "The Urban Assembly School for Collaborative Healthcare", "address": "", "state": "NY", "csm": "James Kennedy", "ae": "Ben Foley", "segment": "Mid-Market", "region": "Northeast", "students": "19963", "arr": "0.00", "arr_12mo_ago": "0.00", "gdr": "0.00", "ndr": "0.00", "lapsed_renewal": "5900.00", "last_activity": "1/14/2026", "lat": 40.8358, "lng": -73.8502}, {"name": "City Polytechnic High School", "address": "105 Tech Place", "state": "NY", "csm": "James Kennedy", "ae": "Ben Foley", "segment": "Mid-Market", "region": "Northeast", "students": "19232", "arr": "6940.00", "arr_12mo_ago": "0.00", "gdr": "0.00", "ndr": "0.00", "lapsed_renewal": "0.00", "last_activity": "2/1/2026", "lat": 40.6866, "lng": -73.9284}, {"name": "Business Technology Early College High School", "address": "", "state": "NY", "csm": "James Kennedy", "ae": "Ben Foley", "segment": "Enterprise", "region": "Northeast", "students": "29442", "arr": "1326.00", "arr_12mo_ago": "0.00", "gdr": "0.00", "ndr": "0.00", "lapsed_renewal": "0.00", "last_activity": "12/22/2025", "lat": 40.7505, "lng": -73.9393}, {"name": "Archdiocese of Cincinnati", "address": "", "state": "OH", "csm": "Casey Prohaska", "ae": "John Tyrrell", "segment": "Enterprise", "region": "Midwest", "students": "40000", "arr": "6650.00", "arr_12mo_ago": "0.00", "gdr": "0.00", "ndr": "0.00", "lapsed_renewal": "0.00", "last_activity": "1/9/2026", "lat": 39.1017, "lng": -84.512}, {"name": "Urban Assembly Maker Academy", "address": "", "state": "NY", "csm": "James Kennedy", "ae": "Ben Foley", "segment": "Enterprise", "region": "Northeast", "students": "55421", "arr": "3925.00", "arr_12mo_ago": "0.00", "gdr": "0.00", "ndr": "0.00", "lapsed_renewal": "0.00", "last_activity": "7/8/2026", "lat": 40.813, "lng": -73.9279}, {"name": "Odyssey Online Learning", "address": "", "state": "SC", "csm": "Deanna Berget", "ae": "Samantha Santucci", "segment": "Enterprise", "region": "Southeast", "students": "25146", "arr": "7941.18", "arr_12mo_ago": "0.00", "gdr": "0.00", "ndr": "0.00", "lapsed_renewal": "0.00", "last_activity": "12/16/2025", "lat": 33.8361, "lng": -81.1637}, {"name": "Academy of Urban Planning and Engineering", "address": "", "state": "NY", "csm": "James Kennedy", "ae": "Ally McCready", "segment": "Mid-Market", "region": "Northeast", "students": "9633", "arr": "7249.80", "arr_12mo_ago": "0.00", "gdr": "0.00", "ndr": "0.00", "lapsed_renewal": "0.00", "last_activity": "1/5/2027", "lat": 40.658, "lng": -73.887}, {"name": "Nelson Mandela School for Social Justice", "address": "1700 Fulton Street", "state": "NY", "csm": "James Kennedy", "ae": "Ally McCready", "segment": "Mid-Market", "region": "Northeast", "students": "5827", "arr": "4520.00", "arr_12mo_ago": "0.00", "gdr": "0.00", "ndr": "0.00", "lapsed_renewal": "0.00", "last_activity": "1/14/2027", "lat": 40.695, "lng": -73.954}, {"name": "Performing Arts and Technology High School", "address": "400 Pennsylvania Avenue", "state": "NY", "csm": "James Kennedy", "ae": "Ben Foley", "segment": "Mid-Market", "region": "Northeast", "students": "19963", "arr": "4530.00", "arr_12mo_ago": "0.00", "gdr": "0.00", "ndr": "0.00", "lapsed_renewal": "0.00", "last_activity": "2/18/2026", "lat": 40.6955, "lng": -73.9293}, {"name": "Cyberarts Studio Academy", "address": "237 Seventh Avenue", "state": "NY", "csm": "James Kennedy", "ae": "Ben Foley", "segment": "Enterprise", "region": "Northeast", "students": "26808", "arr": "3310.00", "arr_12mo_ago": "0.00", "gdr": "0.00", "ndr": "0.00", "lapsed_renewal": "0.00", "last_activity": "12/19/2025", "lat": 40.687, "lng": -73.975}, {"name": "Brooklyn Collegiate: A College Board School", "address": "2021 Bergen St.", "state": "NY", "csm": "James Kennedy", "ae": "Ally McCready", "segment": "Mid-Market", "region": "Northeast", "students": "8334", "arr": "12150.00", "arr_12mo_ago": "0.00", "gdr": "0.00", "ndr": "0.00", "lapsed_renewal": "0.00", "last_activity": "1/27/2026", "lat": 40.6842, "lng": -73.9339}, {"name": "W. H. Maxwell Career and Technical Education High School", "address": "", "state": "NY", "csm": "James Kennedy", "ae": "Ben Foley", "segment": "Mid-Market", "region": "Northeast", "students": "19963", "arr": "3310.00", "arr_12mo_ago": "0.00", "gdr": "0.00", "ndr": "0.00", "lapsed_renewal": "0.00", "last_activity": "7/14/2026", "lat": 40.6866, "lng": -73.9284}, {"name": "Antonia Pantoja Preparatory Academy", "address": "1980 Lafayette Avenue", "state": "NY", "csm": "James Kennedy", "ae": "Ben Foley", "segment": "Enterprise", "region": "Northeast", "students": "24000", "arr": "3915.00", "arr_12mo_ago": "0.00", "gdr": "0.00", "ndr": "0.00", "lapsed_renewal": "0.00", "last_activity": "9/11/2026", "lat": 40.82, "lng": -73.9086}, {"name": "Gotham Collaborative High School", "address": "1980 Lafayette Avenue", "state": "NY", "csm": "James Kennedy", "ae": "Ben Foley", "segment": "Enterprise", "region": "Northeast", "students": "24000", "arr": "10100.00", "arr_12mo_ago": "0.00", "gdr": "0.00", "ndr": "0.00", "lapsed_renewal": "0.00", "last_activity": "1/15/2026", "lat": 40.7451, "lng": -73.9812}, {"name": "Bronxwood Preparatory Academy", "address": "", "state": "NY", "csm": "James Kennedy", "ae": "Ben Foley", "segment": "Enterprise", "region": "Northeast", "students": "32583", "arr": "12080.00", "arr_12mo_ago": "0.00", "gdr": "0.00", "ndr": "0.00", "lapsed_renewal": "0.00", "last_activity": "1/27/2026", "lat": 40.875, "lng": -73.8631}, {"name": "Longwood Preparatory Academy", "address": "965 Longwood Ave", "state": "NY", "csm": "James Kennedy", "ae": "Ben Foley", "segment": "Enterprise", "region": "Northeast", "students": "24000", "arr": "11200.00", "arr_12mo_ago": "0.00", "gdr": "0.00", "ndr": "0.00", "lapsed_renewal": "0.00", "last_activity": "1/27/2026", "lat": 40.8265, "lng": -73.8998}, {"name": "Western Harnett High School", "address": "10637 NC Highway 27 West", "state": "NC", "csm": "Deanna Berget", "ae": "Samantha Santucci", "segment": "Enterprise", "region": "Southeast", "students": "20033", "arr": "18650.00", "arr_12mo_ago": "0.00", "gdr": "0.00", "ndr": "0.00", "lapsed_renewal": "0.00", "last_activity": "1/22/2026", "lat": 35.362, "lng": -78.944}, {"name": "The Brooklyn Academy of Global Finance", "address": "125 Stuyvesant Avenue", "state": "NY", "csm": "James Kennedy", "ae": "Ally McCready", "segment": "Mid-Market", "region": "Northeast", "students": "5827", "arr": "6756.00", "arr_12mo_ago": "0.00", "gdr": "0.00", "ndr": "0.00", "lapsed_renewal": "0.00", "last_activity": "1/7/2026", "lat": 40.6866, "lng": -73.9755}, {"name": "Harold O. Levy School 52", "address": "650 Academy Street", "state": "NY", "csm": "James Kennedy", "ae": "Ben Foley", "segment": "Mid-Market", "region": "Northeast", "students": "17940", "arr": "3925.00", "arr_12mo_ago": "0.00", "gdr": "0.00", "ndr": "0.00", "lapsed_renewal": "0.00", "last_activity": "12/19/2025", "lat": 40.6453, "lng": -73.8867}, {"name": "Creators Academy", "address": "49 Flatbush Avenue Extension", "state": "NY", "csm": "James Kennedy", "ae": "Ben Foley", "segment": "Mid-Market", "region": "Northeast", "students": "19232", "arr": "4380.00", "arr_12mo_ago": "0.00", "gdr": "0.00", "ndr": "0.00", "lapsed_renewal": "0.00", "last_activity": "7/9/2026", "lat": 40.668, "lng": -73.8895}, {"name": "High School for Teaching and the Professions", "address": "2780 Reservoir Avenue", "state": "NY", "csm": "James Kennedy", "ae": "Ben Foley", "segment": "Enterprise", "region": "Northeast", "students": "43655", "arr": "10850.00", "arr_12mo_ago": "0.00", "gdr": "0.00", "ndr": "0.00", "lapsed_renewal": "0.00", "last_activity": "2/6/2026", "lat": 40.6866, "lng": -73.9755}, {"name": "Fordham Leadership Academy", "address": "500 East Fordham Road", "state": "NY", "csm": "James Kennedy", "ae": "Ben Foley", "segment": "Enterprise", "region": "Northeast", "students": "43655", "arr": "5770.00", "arr_12mo_ago": "0.00", "gdr": "0.00", "ndr": "0.00", "lapsed_renewal": "0.00", "last_activity": "5/22/2025", "lat": 40.861, "lng": -73.8908}, {"name": "The Magnet School for Multimedia, Technology, and Urban Planning", "address": "207 Bushwick Avenue", "state": "NY", "csm": "James Kennedy", "ae": "Ben Foley", "segment": "Mid-Market", "region": "Northeast", "students": "15196", "arr": "2052.00", "arr_12mo_ago": "0.00", "gdr": "0.00", "ndr": "0.00", "lapsed_renewal": "0.00", "last_activity": "1/28/2027", "lat": 40.7057, "lng": -73.9398}, {"name": "Frederick Douglass Academy VII High School", "address": "226 Bristol Street", "state": "NY", "csm": "James Kennedy", "ae": "Ally McCready", "segment": "Mid-Market", "region": "Northeast", "students": "8334", "arr": "1507.50", "arr_12mo_ago": "0.00", "gdr": "0.00", "ndr": "0.00", "lapsed_renewal": "0.00", "last_activity": "10/31/2025", "lat": 40.6754, "lng": -73.9071}, {"name": "Mater Lakes Academy", "address": "17300 North West 87th Avenue", "state": "FL", "csm": "Deanna Berget", "ae": "Sean Johnson", "segment": "Enterprise", "region": "Southeast", "students": "335500", "arr": "22650.00", "arr_12mo_ago": "0.00", "gdr": "0.00", "ndr": "0.00", "lapsed_renewal": "0.00", "last_activity": "9/11/2025", "lat": 25.896, "lng": -80.3439}, {"name": "Frederick Douglass Academy III Secondary School", "address": "3630 3rd Avenue", "state": "NY", "csm": "James Kennedy", "ae": "Ben Foley", "segment": "Enterprise", "region": "Northeast", "students": "26766", "arr": "1055.00", "arr_12mo_ago": "0.00", "gdr": "0.00", "ndr": "0.00", "lapsed_renewal": "0.00", "last_activity": "1/19/2027", "lat": 40.8243, "lng": -73.948}, {"name": "Atlantic Community High School", "address": "2455 West Atlantic Avenue", "state": "FL", "csm": "Deanna Berget", "ae": "Andy Graham", "segment": "Enterprise", "region": "Southeast", "students": "189777", "arr": "1500.00", "arr_12mo_ago": "0.00", "gdr": "0.00", "ndr": "0.00", "lapsed_renewal": "0.00", "last_activity": "1/29/2026", "lat": 26.4615, "lng": -80.0728}, {"name": "Boca Raton Community High School", "address": "1501 Northwest 15th Court", "state": "FL", "csm": "Deanna Berget", "ae": "Andy Graham", "segment": "Enterprise", "region": "Southeast", "students": "189777", "arr": "10000.00", "arr_12mo_ago": "0.00", "gdr": "0.00", "ndr": "0.00", "lapsed_renewal": "0.00", "last_activity": "12/18/2025", "lat": 26.3683, "lng": -80.127}, {"name": "Santaluces High School", "address": "6880 Lawrence Road", "state": "FL", "csm": "Deanna Berget", "ae": "Andy Graham", "segment": "Enterprise", "region": "Southeast", "students": "189777", "arr": "4500.00", "arr_12mo_ago": "0.00", "gdr": "0.00", "ndr": "0.00", "lapsed_renewal": "0.00", "last_activity": "1/14/2026", "lat": 26.488, "lng": -80.1125}, {"name": "Wellington Community High School", "address": "2101 Greenview Shores Blvd", "state": "FL", "csm": "Deanna Berget", "ae": "Andy Graham", "segment": "Enterprise", "region": "Southeast", "students": "189777", "arr": "9050.00", "arr_12mo_ago": "0.00", "gdr": "0.00", "ndr": "0.00", "lapsed_renewal": "0.00", "last_activity": "1/28/2026", "lat": 26.6586, "lng": -80.2302}, {"name": "Olympic Heights Community High School", "address": "20101 Lyons Road", "state": "FL", "csm": "Deanna Berget", "ae": "Andy Graham", "segment": "Enterprise", "region": "Southeast", "students": "189777", "arr": "12320.00", "arr_12mo_ago": "0.00", "gdr": "0.00", "ndr": "0.00", "lapsed_renewal": "0.00", "last_activity": "1/7/2026", "lat": 26.3541, "lng": -80.1834}, {"name": "Boynton Beach Community High School", "address": "4975 Park Ridge Boulevard", "state": "FL", "csm": "Deanna Berget", "ae": "Andy Graham", "segment": "Enterprise", "region": "Southeast", "students": "189777", "arr": "11000.00", "arr_12mo_ago": "0.00", "gdr": "0.00", "ndr": "0.00", "lapsed_renewal": "0.00", "last_activity": "1/13/2026", "lat": 26.5318, "lng": -80.0736}, {"name": "RISE", "address": "1300 SW 30th Avenue", "state": "FL", "csm": "Deanna Berget", "ae": "Andy Graham", "segment": "Enterprise", "region": "Southeast", "students": "189777", "arr": "2450.00", "arr_12mo_ago": "0.00", "gdr": "0.00", "ndr": "0.00", "lapsed_renewal": "0.00", "last_activity": "2/13/2026", "lat": 28.0394, "lng": -80.6239}, {"name": "Park Vista Community High School", "address": "7900 Jog Rd", "state": "FL", "csm": "Deanna Berget", "ae": "Andy Graham", "segment": "Enterprise", "region": "Southeast", "students": "189777", "arr": "10350.00", "arr_12mo_ago": "0.00", "gdr": "0.00", "ndr": "0.00", "lapsed_renewal": "0.00", "last_activity": "1/28/2026", "lat": 26.432, "lng": -80.1563}, {"name": "West Boca Raton High School", "address": "12811 Glades Road", "state": "FL", "csm": "Deanna Berget", "ae": "Andy Graham", "segment": "Enterprise", "region": "Southeast", "students": "189777", "arr": "14300.00", "arr_12mo_ago": "0.00", "gdr": "0.00", "ndr": "0.00", "lapsed_renewal": "0.00", "last_activity": "9/17/2025", "lat": 26.36, "lng": -80.1975}, {"name": "Daniel McLaughlin Therrell High School", "address": "3099 Panther Trail South-West", "state": "GA", "csm": "Deanna Berget", "ae": "Andy Graham", "segment": "Enterprise", "region": "Southeast", "students": "49660", "arr": "10139.00", "arr_12mo_ago": "0.00", "gdr": "0.00", "ndr": "0.00", "lapsed_renewal": "0.00", "last_activity": "10/1/2025", "lat": 33.6978, "lng": -84.4332}, {"name": "Academy Public Charter School", "address": "1295 Alpine Avenue", "state": "ID", "csm": "Casey Prohaska", "ae": "Jonathan Pacheco", "segment": "Small", "region": "West", "students": "744", "arr": "15025.00", "arr_12mo_ago": "0.00", "gdr": "0.00", "ndr": "0.00", "lapsed_renewal": "0.00", "last_activity": "1/28/2026", "lat": 43.5845, "lng": -116.3631}, {"name": "South Valley Academy", "address": "3426 Blake Road SW", "state": "NM", "csm": "Casey Prohaska", "ae": "Sean Johnson", "segment": "Enterprise", "region": "South-Central", "students": "76756", "arr": "2292.00", "arr_12mo_ago": "0.00", "gdr": "0.00", "ndr": "0.00", "lapsed_renewal": "0.00", "last_activity": "10/6/2025", "lat": 35.0108, "lng": -106.6758}, {"name": "Archer Academy of Accelerated Learning", "address": "4012 4th Street NW", "state": "NM", "csm": "Casey Prohaska", "ae": "Sean Johnson", "segment": "Enterprise", "region": "South-Central", "students": "76756", "arr": "4575.00", "arr_12mo_ago": "0.00", "gdr": "0.00", "ndr": "0.00", "lapsed_renewal": "0.00", "last_activity": "12/18/2025", "lat": 35.0844, "lng": -106.6504}, {"name": "Westwood Middle School", "address": "500 Apollo Avenue", "state": "VA", "csm": "Deanna Berget", "ae": "John Tyrrell", "segment": "Mid-Market", "region": "Southeast", "students": "5580", "arr": "21389.20", "arr_12mo_ago": "0.00", "gdr": "0.00", "ndr": "0.00", "lapsed_renewal": "0.00", "last_activity": "1/27/2026", "lat": 38.416, "lng": -77.414}, {"name": "Lower East Side Preparatory High School", "address": "145 Stanton Street", "state": "NY", "csm": "James Kennedy", "ae": "Ally McCready", "segment": "Mid-Market", "region": "Northeast", "students": "9896", "arr": "4907.60", "arr_12mo_ago": "0.00", "gdr": "0.00", "ndr": "0.00", "lapsed_renewal": "0.00", "last_activity": "1/14/2027", "lat": 40.7149, "lng": -73.982}, {"name": "Jacqueline Kennedy Onassis High School", "address": "120 West 46th Street", "state": "NY", "csm": "James Kennedy", "ae": "Ben Foley", "segment": "Enterprise", "region": "Northeast", "students": "55421", "arr": "6845.00", "arr_12mo_ago": "0.00", "gdr": "0.00", "ndr": "0.00", "lapsed_renewal": "0.00", "last_activity": "1/12/2027", "lat": 40.7642, "lng": -73.9669}, {"name": "Harvey Milk High School", "address": "2-10 Astor Place", "state": "NY", "csm": "James Kennedy", "ae": "Ben Foley", "segment": "Enterprise", "region": "Northeast", "students": "55421", "arr": "1810.00", "arr_12mo_ago": "0.00", "gdr": "0.00", "ndr": "0.00", "lapsed_renewal": "0.00", "last_activity": "1/30/2026", "lat": 40.7406, "lng": -74.0025}, {"name": "Jamaica Gateway to the Sciences", "address": "167-01 Gothic Drive", "state": "NY", "csm": "James Kennedy", "ae": "Ben Foley", "segment": "Enterprise", "region": "Northeast", "students": "38052", "arr": "1572.17", "arr_12mo_ago": "0.00", "gdr": "0.00", "ndr": "0.00", "lapsed_renewal": "0.00", "last_activity": "1/20/2026", "lat": 40.7048, "lng": -73.7944}, {"name": "NYC Museum School", "address": "333 West 17th Street", "state": "NY", "csm": "James Kennedy", "ae": "Ben Foley", "segment": "Enterprise", "region": "Northeast", "students": "55421", "arr": "12160.00", "arr_12mo_ago": "0.00", "gdr": "0.00", "ndr": "0.00", "lapsed_renewal": "0.00", "last_activity": "2/2/2026", "lat": 40.7451, "lng": -73.9812}, {"name": "VIRTUAL INNOVATOR'S ACADEMY", "address": "", "state": "", "csm": "James Kennedy", "ae": "Ben Foley", "segment": "Enterprise", "region": "", "students": "24000", "arr": "2052.00", "arr_12mo_ago": "0.00", "gdr": "0.00", "ndr": "0.00", "lapsed_renewal": "0.00", "last_activity": "2/9/2026", "lat": 33.749, "lng": -84.388}, {"name": "New Directions Secondary School", "address": "240 East 172nd Street", "state": "NY", "csm": "James Kennedy", "ae": "Ben Foley", "segment": "Enterprise", "region": "Northeast", "students": "26766", "arr": "1810.00", "arr_12mo_ago": "0.00", "gdr": "0.00", "ndr": "0.00", "lapsed_renewal": "0.00", "last_activity": "11/25/2025", "lat": 40.8243, "lng": -73.948}, {"name": "Gates Foundation", "address": "", "state": "", "csm": "", "ae": "Joe Philleo", "segment": "", "region": "", "students": "", "arr": "0.00", "arr_12mo_ago": "0.00", "gdr": "0.00", "ndr": "0.00", "lapsed_renewal": "0.00", "last_activity": "", "lat": 47.627, "lng": -122.3466}, {"name": "University Prep Schools", "address": "", "state": "MI", "csm": "Casey Prohaska", "ae": "Sydney Levenfeld", "segment": "", "region": "Midwest", "students": "", "arr": "10362.50", "arr_12mo_ago": "0.00", "gdr": "0.00", "ndr": "0.00", "lapsed_renewal": "0.00", "last_activity": "2/19/2026", "lat": 42.3808, "lng": -83.0886}, {"name": "Edward Johnstone School", "address": "165 South Brewster Road", "state": "NJ", "csm": "Deanna Berget", "ae": "Ally McCready", "segment": "Mid-Market", "region": "", "students": "10317", "arr": "3567.00", "arr_12mo_ago": "0.00", "gdr": "0.00", "ndr": "0.00", "lapsed_renewal": "0.00", "last_activity": "1/28/2026", "lat": 40.5015, "lng": -74.8541}, {"name": "Pacific Law Academy", "address": "1621 Brookside Rd.", "state": "CA", "csm": "Casey Prohaska", "ae": "Sean Johnson", "segment": "Enterprise", "region": "West", "students": "34544", "arr": "7510.00", "arr_12mo_ago": "0.00", "gdr": "0.00", "ndr": "0.00", "lapsed_renewal": "0.00", "last_activity": "12/16/2026", "lat": 38.5816, "lng": -121.4944}, {"name": "Westmark School", "address": "5461 Louise Avenue", "state": "CA", "csm": "Casey Prohaska", "ae": "Callie Brennan", "segment": "Small", "region": "West", "students": "217", "arr": "700.00", "arr_12mo_ago": "0.00", "gdr": "0.00", "ndr": "0.00", "lapsed_renewal": "0.00", "last_activity": "", "lat": 34.1577, "lng": -118.6327}, {"name": "Alliance Marine Innovation and Technology 6-12 Complex", "address": "", "state": "CA", "csm": "Casey Prohaska", "ae": "Callie Brennan", "segment": "SMB", "region": "West", "students": "1074", "arr": "14003.20", "arr_12mo_ago": "0.00", "gdr": "0.00", "ndr": "0.00", "lapsed_renewal": "0.00", "last_activity": "12/22/2025", "lat": 33.764, "lng": -118.189}, {"name": "Mt. Everett Regional School", "address": "491 Berkshire School Road", "state": "MA", "csm": "Deanna Berget", "ae": "Marixza Acuna", "segment": "Small", "region": "Northeast", "students": "614", "arr": "1675.00", "arr_12mo_ago": "0.00", "gdr": "0.00", "ndr": "0.00", "lapsed_renewal": "0.00", "last_activity": "1/29/2026", "lat": 42.1121, "lng": -73.4296}, {"name": "Holy Cross Catholic High School", "address": "4014 North County Road 1160", "state": "TX", "csm": "Casey Prohaska", "ae": "Paulina Famiano", "segment": "Small", "region": "South-Central", "students": "75", "arr": "3490.00", "arr_12mo_ago": "0.00", "gdr": "0.00", "ndr": "0.00", "lapsed_renewal": "0.00", "last_activity": "1/20/2026", "lat": 29.4473, "lng": -98.4581}, {"name": "Juan Morel Campos Secondary School", "address": "215 Heyward Street", "state": "NY", "csm": "James Kennedy", "ae": "Ally McCready", "segment": "", "region": "", "students": "", "arr": "4975.00", "arr_12mo_ago": "0.00", "gdr": "0.00", "ndr": "0.00", "lapsed_renewal": "0.00", "last_activity": "1/26/2027", "lat": 40.7057, "lng": -73.9398}, {"name": "Intrinsic Schools", "address": "", "state": "IL", "csm": "Casey Prohaska", "ae": "Sydney Smith", "segment": "SMB", "region": "Midwest", "students": "1700", "arr": "4080.00", "arr_12mo_ago": "0.00", "gdr": "0.00", "ndr": "0.00", "lapsed_renewal": "0.00", "last_activity": "1/12/2026", "lat": 41.9218, "lng": -87.7066}, {"name": "Pinkerton Middle School", "address": "", "state": "CA", "csm": "Casey Prohaska", "ae": "Sean Johnson", "segment": "Enterprise", "region": "West", "students": "62603", "arr": "3600.00", "arr_12mo_ago": "0.00", "gdr": "0.00", "ndr": "0.00", "lapsed_renewal": "0.00", "last_activity": "1/29/2026", "lat": 34.0586, "lng": -117.7529}, {"name": "KIPP Colorado", "address": "", "state": "CO", "csm": "Casey Prohaska", "ae": "Caroline Uhlarik", "segment": "", "region": "West", "students": "", "arr": "12490.80", "arr_12mo_ago": "0.00", "gdr": "0.00", "ndr": "0.00", "lapsed_renewal": "0.00", "last_activity": "1/31/2026", "lat": 39.7585, "lng": -104.987}, {"name": "Foothill High School", "address": "", "state": "CA", "csm": "Casey Prohaska", "ae": "Jonathan Pacheco", "segment": "SMB", "region": "West", "students": "4215", "arr": "6177.00", "arr_12mo_ago": "0.00", "gdr": "0.00", "ndr": "0.00", "lapsed_renewal": "0.00", "last_activity": "12/18/2025", "lat": 34.1261, "lng": -117.6948}, {"name": "R.I.S.E. Academy", "address": "1005 North Main Street", "state": "VA", "csm": "Deanna Berget", "ae": "Christina Ceballos", "segment": "Mid-Market", "region": "", "students": "5580", "arr": "0.00", "arr_12mo_ago": "0.00", "gdr": "0.00", "ndr": "0.00", "lapsed_renewal": "0.00", "last_activity": "1/28/2026", "lat": 36.8468, "lng": -76.2852}]
